{"new_york": [{"rating": "10", "name": "Beacon High School", "zipcode": "10036", "longitude": "-73.99573", "grades": "9-12", "latitude": "40.76141"}, {"rating": "10", "name": "Ps 290 Manhattan New School", "zipcode": "10028", "longitude": "-73.95281", "grades": "K-5", "latitude": "40.77514"}, {"rating": "10", "name": "Ps 3 Charrette School", "zipcode": "10014", "longitude": "-74.00594", "grades": "PK-5", "latitude": "40.73263"}, {"rating": "10", "name": "Ps 6 Lillie D Blake", "zipcode": "10028", "longitude": "-73.96071", "grades": "K-5", "latitude": "40.777676"}, {"rating": "10", "name": "Ps 9 Sarah Anderson", "zipcode": "10024", "longitude": "-73.97387", "grades": "PK-5", "latitude": "40.785103"}, {"rating": "10", "name": "P.S. 40 Augustus St.-Gaudens", "zipcode": "10003", "longitude": "-73.9817", "grades": "PK-5", "latitude": "40.73512"}, {"rating": "10", "name": "P.S. 41 Greenwich Village", "zipcode": "10011", "longitude": "-73.999115", "grades": "PK-5", "latitude": "40.735527"}, {"rating": "10", "name": "Ps 59 Beekman Hill International", "zipcode": "10019", "longitude": "-73.98286", "grades": "K-5", "latitude": "40.76585"}, {"rating": "10", "name": "Ps 87 William Sherman", "zipcode": "10024", "longitude": "-73.97801", "grades": "PK-5", "latitude": "40.781788"}, {"rating": "10", "name": "Ps 124 Yung Wing", "zipcode": "10002", "longitude": "-73.99553", "grades": "PK-5", "latitude": "40.714424"}, {"rating": "10", "name": "Ps 130 Hernando De Soto", "zipcode": "10013", "longitude": "-73.99826", "grades": "PK-5", "latitude": "40.71882"}, {"rating": "10", "name": "Ps 150", "zipcode": "10013", "longitude": "-74.01094", "grades": "PK-5", "latitude": "40.718082"}, {"rating": "10", "name": "P.S. 158 Baylard Taylor", "zipcode": "10075", "longitude": "-73.95073", "grades": "PK-5", "latitude": "40.770203"}, {"rating": "10", "name": "Ps 166 The Richard Rogers School Of The Arts And S", "zipcode": "10024", "longitude": "-73.97246", "grades": "K-5", "latitude": "40.788883"}, {"rating": "10", "name": "Jhs 167 Robert F Wagner", "zipcode": "10021", "longitude": "-73.95794", "grades": "6-8", "latitude": "40.771828"}, {"rating": "10", "name": "Ps 183 Robert L Stevenson", "zipcode": "10065", "longitude": "-73.957756", "grades": "K-5", "latitude": "40.763763"}, {"rating": "10", "name": "Ps 199 Jessie Isador Straus", "zipcode": "10023", "longitude": "-73.98473", "grades": "K-5", "latitude": "40.777767"}, {"rating": "10", "name": "Stuyvesant High School", "zipcode": "10282", "longitude": "-74.01391", "grades": "9-12", "latitude": "40.717945"}, {"rating": "10", "name": "New Explorations Into Science, Tech and Math High School", "zipcode": "10002", "longitude": "-73.97924", "grades": "K-12", "latitude": "40.7195"}, {"rating": "10", "name": "Ps 89", "zipcode": "10282", "longitude": "-74.013626", "grades": "PK-5", "latitude": "40.716866"}, {"rating": "10", "name": "Is 289", "zipcode": "10282", "longitude": "-74.013626", "grades": "6-8", "latitude": "40.716866"}, {"rating": "10", "name": "Ps 234 Independence School", "zipcode": "10007", "longitude": "-74.011765", "grades": "K-5", "latitude": "40.716095"}, {"rating": "10", "name": "Ps 184 Shuang Wen", "zipcode": "10002", "longitude": "-73.98549", "grades": "PK-8", "latitude": "40.711437"}, {"rating": "10", "name": "Ps 77 Lower Lab School", "zipcode": "10128", "longitude": "-73.95003", "grades": "K-5", "latitude": "40.785015"}, {"rating": "10", "name": "Ms 243 Center School", "zipcode": "10024", "longitude": "-73.97387", "grades": "5-8", "latitude": "40.785103"}, {"rating": "10", "name": "Ms 260 Clinton School Writers And Artists", "zipcode": "10003", "longitude": "-73.992355", "grades": "6-8", "latitude": "40.736115"}, {"rating": "10", "name": "Ms 255 Salk School Of Science", "zipcode": "10003", "longitude": "-73.9817", "grades": "6-8", "latitude": "40.73512"}, {"rating": "10", "name": "East Side Middle School", "zipcode": "10024", "longitude": "-73.97661", "grades": "6-8", "latitude": "40.79255"}, {"rating": "10", "name": "Ballet Tech Nyc Ps For Dance", "zipcode": "10003", "longitude": "-73.98949", "grades": "4-8", "latitude": "40.73854"}, {"rating": "10", "name": "Nyc Lab Ms For Collaborative Studies", "zipcode": "10011", "longitude": "-74.00237", "grades": "6-8", "latitude": "40.742573"}, {"rating": "10", "name": "The Anderson School", "zipcode": "10024", "longitude": "-73.97809", "grades": "K-8", "latitude": "40.781082"}, {"rating": "10", "name": "Success Academy Harlem 1", "zipcode": "10026", "longitude": "-73.94826", "grades": "K-9", "latitude": "40.803013"}, {"rating": "10", "name": "High School Math Science And Engineering At Ccny", "zipcode": "10031", "longitude": "-73.948845", "grades": "9-12", "latitude": "40.821396"}, {"rating": "10", "name": "Spruce Street School", "zipcode": "10038", "longitude": "-74.00536", "grades": "PK-5", "latitude": "40.711056"}, {"rating": "10", "name": "Harlem Success Academy Charter School 4", "zipcode": "10026", "longitude": "-73.95529", "grades": "K-7", "latitude": "40.80165"}, {"rating": "10", "name": "Harlem Success Academy Charter School 3", "zipcode": "10029", "longitude": "-73.94455", "grades": "K-7", "latitude": "40.796047"}, {"rating": "10", "name": "Harlem Success Academy Charter School 2", "zipcode": "10035", "longitude": "-73.93533", "grades": "K-6", "latitude": "40.805717"}, {"rating": "10", "name": "Ps 452", "zipcode": "10024", "longitude": "-73.97809", "grades": "K-4", "latitude": "40.781082"}, {"rating": "10", "name": "Harlem Success Academy Charter School 5", "zipcode": "10030", "longitude": "-73.94446", "grades": "K-5", "latitude": "40.82019"}, {"rating": "10", "name": "Success Academy Upper West", "zipcode": "10024", "longitude": "-73.974075", "grades": "K-4", "latitude": "40.785954"}, {"rating": "10", "name": "Neighborhood Charter School of Harlem", "zipcode": "10027", "longitude": "-73.94738", "grades": "K-3", "latitude": "40.80758"}, {"rating": "9", "name": "Institute For Collaborative Education", "zipcode": "10003", "longitude": "-73.982574", "grades": "6-12", "latitude": "40.732677"}, {"rating": "9", "name": "Ps 11 William T Harris", "zipcode": "10011", "longitude": "-74.00074", "grades": "PK-5", "latitude": "40.74455"}, {"rating": "9", "name": "Ps 33 Chelsea Prep", "zipcode": "10001", "longitude": "-74.000244", "grades": "PK-5", "latitude": "40.748943"}, {"rating": "9", "name": "Ps 42 Benjamin Altman", "zipcode": "10002", "longitude": "-73.990845", "grades": "PK-5", "latitude": "40.716137"}, {"rating": "9", "name": "Jhs 54 Booker T Washington", "zipcode": "10025", "longitude": "-73.9628", "grades": "6-8", "latitude": "40.80051"}, {"rating": "9", "name": "Ps 116 Mary Lindley Murray", "zipcode": "10016", "longitude": "-73.97763", "grades": "PK-5", "latitude": "40.744427"}, {"rating": "9", "name": "Ps 163 Alfred E Smith", "zipcode": "10025", "longitude": "-73.96854", "grades": "PK-5", "latitude": "40.794945"}, {"rating": "9", "name": "Ps 171 Patrick Henry", "zipcode": "10029", "longitude": "-73.95145", "grades": "PK-8", "latitude": "40.792305"}, {"rating": "9", "name": "School Of The Future High School", "zipcode": "10010", "longitude": "-73.98535", "grades": "6-12", "latitude": "40.739094"}, {"rating": "9", "name": "Jhs 104 Simon Baruch", "zipcode": "10010", "longitude": "-73.98042", "grades": "6-8", "latitude": "40.735893"}, {"rating": "9", "name": "The Mott Hall School", "zipcode": "10027", "longitude": "-73.952675", "grades": "6-8", "latitude": "40.81582"}, {"rating": "9", "name": "Ps 333 Manhattan School For Children", "zipcode": "10025", "longitude": "-73.97077", "grades": "K-8", "latitude": "40.791683"}, {"rating": "9", "name": "Ps 212 Midtown West", "zipcode": "10036", "longitude": "-73.98867", "grades": "PK-5", "latitude": "40.76133"}, {"rating": "9", "name": "Eleanor Roosevelt High School", "zipcode": "10021", "longitude": "-73.95327", "grades": "9-12", "latitude": "40.770283"}, {"rating": "9", "name": "Millennium High School", "zipcode": "10004", "longitude": "-74.01123", "grades": "9-12", "latitude": "40.704685"}, {"rating": "9", "name": "The East Village Community School", "zipcode": "10009", "longitude": "-73.97838", "grades": "PK-5", "latitude": "40.727726"}, {"rating": "9", "name": "Tompkins Square Middle School", "zipcode": "10009", "longitude": "-73.981606", "grades": "6-8", "latitude": "40.723747"}, {"rating": "9", "name": "Bard High School Early College", "zipcode": "10002", "longitude": "-73.976074", "grades": "9-12", "latitude": "40.718094"}, {"rating": "9", "name": "Baruch College Campus High School", "zipcode": "10010", "longitude": "-73.98585", "grades": "9-12", "latitude": "40.741875"}, {"rating": "9", "name": "High School For Dual Language And Asian Studies", "zipcode": "10002", "longitude": "-73.98932", "grades": "9-12", "latitude": "40.717316"}, {"rating": "9", "name": "Mott Hall Ii", "zipcode": "10025", "longitude": "-73.96595", "grades": "6-8", "latitude": "40.802677"}, {"rating": "9", "name": "Tag Young Scholars", "zipcode": "10029", "longitude": "-73.942116", "grades": "K-8", "latitude": "40.79259"}, {"rating": "9", "name": "Columbia Secondary School", "zipcode": "10027", "longitude": "-73.95585", "grades": "6-12", "latitude": "40.81064"}, {"rating": "9", "name": "Battery Park City School", "zipcode": "10011", "longitude": "-74.01765", "grades": "K-8", "latitude": "40.706738"}, {"rating": "9", "name": "Special Music School", "zipcode": "10023", "longitude": "-73.982994", "grades": "K-10", "latitude": "40.775223"}, {"rating": "9", "name": "East Side Elementary School, PS 267", "zipcode": "10065", "longitude": "-73.96387", "grades": "PK-4", "latitude": "40.763878"}, {"rating": "8", "name": "Manhattan Village Academy", "zipcode": "10010", "longitude": "-73.992256", "grades": "9-12", "latitude": "40.741962"}, {"rating": "8", "name": "East Side Community School", "zipcode": "10009", "longitude": "-73.982475", "grades": "6-12", "latitude": "40.729153"}, {"rating": "8", "name": "Professional Performing Arts High School", "zipcode": "10036", "longitude": "-73.98867", "grades": "6-12", "latitude": "40.76133"}, {"rating": "8", "name": "Ps 2 Meyer London", "zipcode": "10002", "longitude": "-73.991554", "grades": "PK-5", "latitude": "40.712944"}, {"rating": "8", "name": "Ps 84 Lilian Weber", "zipcode": "10025", "longitude": "-73.9681", "grades": "PK-5", "latitude": "40.789383"}, {"rating": "8", "name": "Ps 110 Florence Nightingale", "zipcode": "10002", "longitude": "-73.97993", "grades": "PK-5", "latitude": "40.715294"}, {"rating": "8", "name": "Ps 126 Jacob August Riis", "zipcode": "10038", "longitude": "-73.997", "grades": "PK-8", "latitude": "40.71045"}, {"rating": "8", "name": "Ps Is 187 Hudson Cliffs", "zipcode": "10040", "longitude": "-73.937294", "grades": "K-8", "latitude": "40.856136"}, {"rating": "8", "name": "Nyc Museum School", "zipcode": "10011", "longitude": "-74.00237", "grades": "9-12", "latitude": "40.742573"}, {"rating": "8", "name": "Ms 131", "zipcode": "10002", "longitude": "-73.99355", "grades": "6-8", "latitude": "40.716213"}, {"rating": "8", "name": "Fiorello H Laguardia High School of Music, Art and Performing Arts", "zipcode": "10023", "longitude": "-73.985916", "grades": "9-12", "latitude": "40.774162"}, {"rating": "8", "name": "Manhattan Center for Science & Mathematics", "zipcode": "10029", "longitude": "-73.93269", "grades": "9-12", "latitude": "40.794167"}, {"rating": "8", "name": "Ms 245 The Computer School", "zipcode": "10024", "longitude": "-73.97809", "grades": "6-8", "latitude": "40.781082"}, {"rating": "8", "name": "Harbor Science and Arts Charter School", "zipcode": "10029", "longitude": "-73.94453", "grades": "K-8", "latitude": "40.795536"}, {"rating": "8", "name": "Ms 224 Manhattan East School For Arts And Academy", "zipcode": "10029", "longitude": "-73.94201", "grades": "6-8", "latitude": "40.785027"}, {"rating": "8", "name": "Harvey Milk High School", "zipcode": "10003", "longitude": "-73.99223", "grades": "9-12", "latitude": "40.729702"}, {"rating": "8", "name": "Manhattan/Hunter Science High School", "zipcode": "10023", "longitude": "-73.98562", "grades": "9-12", "latitude": "40.7749"}, {"rating": "8", "name": "The Children S Workshop School", "zipcode": "10009", "longitude": "-73.97838", "grades": "PK-5", "latitude": "40.727726"}, {"rating": "8", "name": "Lower Manhattan Community Middle School", "zipcode": "10004", "longitude": "-74.012886", "grades": "6-8", "latitude": "40.70544"}, {"rating": "8", "name": "Central Park East Ii", "zipcode": "10029", "longitude": "-73.95145", "grades": "PK-5", "latitude": "40.792305"}, {"rating": "8", "name": "Muscota", "zipcode": "10034", "longitude": "-73.92382", "grades": "K-5", "latitude": "40.866524"}, {"rating": "8", "name": "Yorkville Community School", "zipcode": "10128", "longitude": "-73.94732", "grades": "K-5", "latitude": "40.777924"}, {"rating": "7", "name": "Talent Unlimited High School", "zipcode": "10065", "longitude": "-73.959694", "grades": "9-12", "latitude": "40.76537"}, {"rating": "7", "name": "Ps 7 Louis F Simeone", "zipcode": "11373", "longitude": "-73.882576", "grades": "K-3", "latitude": "40.73975"}, {"rating": "7", "name": "Ps 1 Alfred E Smith", "zipcode": "10038", "longitude": "-73.997475", "grades": "PK-5", "latitude": "40.712563"}, {"rating": "7", "name": "Ps 19 Asher Levy", "zipcode": "10003", "longitude": "-73.98423", "grades": "PK-5", "latitude": "40.729893"}, {"rating": "7", "name": "Ps 125 Ralph Bunche", "zipcode": "10027", "longitude": "-73.95585", "grades": "PK-5", "latitude": "40.81064"}, {"rating": "7", "name": "Nyc Lab High School For Collaborative Studies", "zipcode": "10011", "longitude": "-74.00237", "grades": "9-12", "latitude": "40.742573"}, {"rating": "7", "name": "Young Women's Leadership School", "zipcode": "10029", "longitude": "-73.94717", "grades": "6-12", "latitude": "40.792934"}, {"rating": "7", "name": "Ella Baker School", "zipcode": "10065", "longitude": "-73.959694", "grades": "PK-8", "latitude": "40.76537"}, {"rating": "7", "name": "Ps Is 217 Roosevelt Island", "zipcode": "10044", "longitude": "-73.94847", "grades": "PK-8", "latitude": "40.76397"}, {"rating": "7", "name": "New York Mills Elementary School", "zipcode": "13417", "longitude": "-75.291374", "grades": "K-6", "latitude": "43.092567"}, {"rating": "7", "name": "Amber Charter School", "zipcode": "10029", "longitude": "-73.94391", "grades": "K-5", "latitude": "40.790928"}, {"rating": "7", "name": "Ps 83 Luis Munoz Rivera", "zipcode": "10029", "longitude": "-73.94181", "grades": "PK-5", "latitude": "40.79313"}, {"rating": "7", "name": "City College Academy Of The Arts", "zipcode": "10040", "longitude": "-73.93007", "grades": "6-12", "latitude": "40.86082"}, {"rating": "7", "name": "Earth School", "zipcode": "10009", "longitude": "-73.981606", "grades": "PK-5", "latitude": "40.723747"}, {"rating": "7", "name": "Girls Preparatory Charter School of New York", "zipcode": "10002", "longitude": "-73.97738", "grades": "K-8", "latitude": "40.71987"}, {"rating": "7", "name": "Harlem Children S Zone Promise Academy Ii Charter", "zipcode": "10035", "longitude": "-73.94102", "grades": "K-10", "latitude": "40.806206"}, {"rating": "7", "name": "Paula Hedbavny School", "zipcode": "10034", "longitude": "-73.91249", "grades": "K-8", "latitude": "40.8716"}, {"rating": "7", "name": "Democracy Preparatory Charter School", "zipcode": "10030", "longitude": "-73.94581", "grades": "6-12", "latitude": "40.81495"}, {"rating": "7", "name": "Lower East Side Preparatory High School", "zipcode": "10002", "longitude": "-73.985954", "grades": "10-12", "latitude": "40.720184"}, {"rating": "7", "name": "Nyc Ischool", "zipcode": "10013", "longitude": "-74.005066", "grades": "9-12", "latitude": "40.724636"}, {"rating": "7", "name": "Emma Lazarus High School", "zipcode": "10002", "longitude": "-73.99355", "grades": "9-12", "latitude": "40.716213"}, {"rating": "7", "name": "Frank Mccourt High School", "zipcode": "10024", "longitude": "-73.974075", "grades": "9-12", "latitude": "40.785954"}, {"rating": "7", "name": "Democracy Prep Endurance Charter School", "zipcode": "10027", "longitude": "-73.94886", "grades": "6-8", "latitude": "40.810555"}, {"rating": "6", "name": "Central Park East High School", "zipcode": "10029", "longitude": "-73.94857", "grades": "9-12", "latitude": "40.793747"}, {"rating": "6", "name": "High School for Health Professions & Human Services", "zipcode": "10003", "longitude": "-73.982574", "grades": "9-12", "latitude": "40.732677"}, {"rating": "6", "name": "Chelsea Career And Technical Education High School", "zipcode": "10013", "longitude": "-74.005066", "grades": "9-12", "latitude": "40.724636"}, {"rating": "6", "name": "P.S. 51 Elias Howe", "zipcode": "10036", "longitude": "-73.99559", "grades": "PK-5", "latitude": "40.761593"}, {"rating": "6", "name": "Ps 75 Emily Dickinson", "zipcode": "10025", "longitude": "-73.97399", "grades": "K-5", "latitude": "40.79511"}, {"rating": "6", "name": "Ps 198 Isador E Ida Straus", "zipcode": "10128", "longitude": "-73.95003", "grades": "PK-5", "latitude": "40.785015"}, {"rating": "6", "name": "Professor Juan Bosch Public School", "zipcode": "10040", "longitude": "-73.92821", "grades": "K-4", "latitude": "40.85934"}, {"rating": "6", "name": "Manhattan Comprehensive Night And Day High School", "zipcode": "10003", "longitude": "-73.98432", "grades": "10-12", "latitude": "40.732674"}, {"rating": "6", "name": "New York Mills Junior Senior High School", "zipcode": "13417", "longitude": "-75.291374", "grades": "7-12", "latitude": "43.092567"}, {"rating": "6", "name": "Ms 247 Dual Language Middle School", "zipcode": "10025", "longitude": "-73.9681", "grades": "6-8", "latitude": "40.789383"}, {"rating": "6", "name": "Urban Academy Laboratory High School", "zipcode": "10065", "longitude": "-73.959694", "grades": "9-12", "latitude": "40.76537"}, {"rating": "6", "name": "KIPP S.T.A.R. Charter School", "zipcode": "10027", "longitude": "-73.95634", "grades": "K, 5-12", "latitude": "40.810856"}, {"rating": "6", "name": "Manhattan Charter School", "zipcode": "10002", "longitude": "-73.984085", "grades": "K-5", "latitude": "40.71823"}, {"rating": "6", "name": "Harlem Children's Zone Promise Academy Charter School", "zipcode": "10027", "longitude": "-73.94816", "grades": "K-11", "latitude": "40.812588"}, {"rating": "6", "name": "Kipp Infinity Charter School", "zipcode": "10027", "longitude": "-73.95724", "grades": "K-12", "latitude": "40.819763"}, {"rating": "6", "name": "Democracy Prep Harlem Charter School", "zipcode": "10030", "longitude": "-73.94512", "grades": "K-1, 6-10", "latitude": "40.81441"}, {"rating": "6", "name": "KIPP NYC WASHINGTON HEIGHTS CHARTER", "zipcode": "10032", "longitude": "-73.935776", "grades": "K-3, 5-7", "latitude": "40.83941"}, {"rating": "6", "name": "Manhattan Charter School II", "zipcode": "10002", "longitude": "-73.98607", "grades": "K-3", "latitude": "40.713345"}, {"rating": "6", "name": "Great Oaks Charter School", "zipcode": "10002", "longitude": "-73.99652", "grades": "6", "latitude": "40.71154"}, {"rating": "6", "name": "E Harlem Scholars Acad Charter School", "zipcode": "10029", "longitude": "-73.94857", "grades": "K-4", "latitude": "40.793747"}, {"rating": "5", "name": "Jefferson Central School", "zipcode": "10014", "longitude": "-74.00932", "grades": "PK-12", "latitude": "40.740013"}, {"rating": "5", "name": "Repertory Company High School for Theatre Arts", "zipcode": "10036", "longitude": "-73.98445", "grades": "9-12", "latitude": "40.756115"}, {"rating": "5", "name": "The High School of Fashion Industries", "zipcode": "10011", "longitude": "-73.99639", "grades": "9-12", "latitude": "40.745705"}, {"rating": "5", "name": "Ps 7 Samuel Stern", "zipcode": "10035", "longitude": "-73.93932", "grades": "PK-8", "latitude": "40.800632"}, {"rating": "5", "name": "Ps 20 Anna Silver", "zipcode": "10002", "longitude": "-73.98631", "grades": "PK-5", "latitude": "40.721275"}, {"rating": "5", "name": "Ps 34 Franklin D Roosevelt", "zipcode": "10009", "longitude": "-73.975044", "grades": "PK-8", "latitude": "40.726147"}, {"rating": "5", "name": "James Weldon Johnson School", "zipcode": "10029", "longitude": "-73.941284", "grades": "PK-8", "latitude": "40.797157"}, {"rating": "5", "name": "S.T.A.R. Academy - PS 63", "zipcode": "10009", "longitude": "-73.985916", "grades": "PK-5", "latitude": "40.723904"}, {"rating": "5", "name": "Humanities Preparatory Academy", "zipcode": "10011", "longitude": "-74.00255", "grades": "9-12", "latitude": "40.743366"}, {"rating": "5", "name": "Harlem Day Charter School", "zipcode": "10035", "longitude": "-73.93508", "grades": "K-8", "latitude": "40.801376"}, {"rating": "5", "name": "Ms 250 West Side Collaborative Middle School", "zipcode": "10025", "longitude": "-73.97399", "grades": "6-8", "latitude": "40.79511"}, {"rating": "5", "name": "Sisulu Walker Charter School Of Harlem", "zipcode": "10026", "longitude": "-73.951355", "grades": "K-5", "latitude": "40.8021"}, {"rating": "5", "name": "Marble Hill High School of International Studies", "zipcode": "10463", "longitude": "-73.91333", "grades": "9-12", "latitude": "40.8776"}, {"rating": "5", "name": "Thurgood Marshall Academy Lower School", "zipcode": "10039", "longitude": "-73.93794", "grades": "K-5", "latitude": "40.825966"}, {"rating": "5", "name": "Neighborhood School", "zipcode": "10009", "longitude": "-73.98636", "grades": "PK-5", "latitude": "40.724403"}, {"rating": "5", "name": "Essex Street Academy", "zipcode": "10002", "longitude": "-73.98932", "grades": "9-12", "latitude": "40.717316"}, {"rating": "5", "name": "Pace High School", "zipcode": "10002", "longitude": "-73.99355", "grades": "9-12", "latitude": "40.716213"}, {"rating": "5", "name": "Future Leaders Institute Charter School", "zipcode": "10027", "longitude": "-73.94833", "grades": "K-8", "latitude": "40.806175"}, {"rating": "5", "name": "Harlem Village Academy Leadership Middle School", "zipcode": "10035", "longitude": "-73.93395", "grades": "K-2, 5-12", "latitude": "40.799316"}, {"rating": "5", "name": "Harlem Village Academy Charter School", "zipcode": "10027", "longitude": "-73.944016", "grades": "K-2, 5-12", "latitude": "40.806557"}, {"rating": "5", "name": "Washington Heights Expeditionary Learning School", "zipcode": "10033", "longitude": "-73.93111", "grades": "PK-K, 6-12", "latitude": "40.8491"}, {"rating": "5", "name": "Cascades High School", "zipcode": "10002", "longitude": "-73.99049", "grades": "9-12", "latitude": "40.722412"}, {"rating": "5", "name": "High School 560 City As School", "zipcode": "10014", "longitude": "-74.0061", "grades": "10-12", "latitude": "40.72911"}, {"rating": "5", "name": "Satellite Academy High School", "zipcode": "10001", "longitude": "-73.990555", "grades": "9-12", "latitude": "40.747433"}, {"rating": "5", "name": "Washington Heights Academy", "zipcode": "10034", "longitude": "-73.9216", "grades": "PK-6", "latitude": "40.865574"}, {"rating": "5", "name": "Quest To Learn", "zipcode": "10011", "longitude": "-74.00255", "grades": "6-11", "latitude": "40.743366"}, {"rating": "5", "name": "Global Technology Preparatory", "zipcode": "10035", "longitude": "-73.93932", "grades": "6-8", "latitude": "40.800632"}, {"rating": "5", "name": "Dream Charter School", "zipcode": "10029", "longitude": "-73.94409", "grades": "K-7", "latitude": "40.78834"}, {"rating": "5", "name": "The Equity Project Charter School", "zipcode": "10040", "longitude": "-73.92699", "grades": "5-8", "latitude": "40.855934"}, {"rating": "5", "name": "Harvest Collegiate High School", "zipcode": "10011", "longitude": "-73.995476", "grades": "9-11", "latitude": "40.736588"}, {"rating": "5", "name": "Academy for Software Engineering", "zipcode": "10003", "longitude": "-73.98708", "grades": "9-11", "latitude": "40.735325"}, {"rating": "5", "name": "New York French American Charter School", "zipcode": "10027", "longitude": "-73.95422", "grades": "K-5", "latitude": "40.80754"}, {"rating": "5", "name": "Urban Assembly-Emergency Management", "zipcode": "10038", "longitude": "-74.00132", "grades": "9-10", "latitude": "40.711033"}, {"rating": "4", "name": "Landmark High School", "zipcode": "10011", "longitude": "-74.00255", "grades": "9-12", "latitude": "40.743366"}, {"rating": "4", "name": "Vanguard High School", "zipcode": "10065", "longitude": "-73.959694", "grades": "9-12", "latitude": "40.76537"}, {"rating": "4", "name": "Park East High School", "zipcode": "10029", "longitude": "-73.94417", "grades": "9-12", "latitude": "40.790203"}, {"rating": "4", "name": "High School Of Economics And Finance", "zipcode": "10006", "longitude": "-74.01233", "grades": "9-12", "latitude": "40.70929"}, {"rating": "4", "name": "Frederick Douglass Academy", "zipcode": "10039", "longitude": "-73.93655", "grades": "6-12", "latitude": "40.824398"}, {"rating": "4", "name": "Marta Valle High School", "zipcode": "10002", "longitude": "-73.985954", "grades": "9-12", "latitude": "40.720184"}, {"rating": "4", "name": "Art and Design High School", "zipcode": "10019", "longitude": "-73.98286", "grades": "9-12", "latitude": "40.76585"}, {"rating": "4", "name": "Ps 28 Wright Brothers", "zipcode": "10032", "longitude": "-73.94208", "grades": "PK-5", "latitude": "40.831654"}, {"rating": "4", "name": "The Bilingual Bicultural School", "zipcode": "10029", "longitude": "-73.94181", "grades": "K-5", "latitude": "40.79313"}, {"rating": "4", "name": "Ps 111 Adolph S Ochs", "zipcode": "10019", "longitude": "-73.9896", "grades": "PK-5, 7-8", "latitude": "40.765835"}, {"rating": "4", "name": "Ps 134 Henrietta Szold", "zipcode": "10002", "longitude": "-73.98296", "grades": "PK-5", "latitude": "40.714302"}, {"rating": "4", "name": "Ps 153 Adam Clayton Powell", "zipcode": "10031", "longitude": "-73.94746", "grades": "PK-5", "latitude": "40.826477"}, {"rating": "4", "name": "Ps 173", "zipcode": "10033", "longitude": "-73.939735", "grades": "PK-5", "latitude": "40.84562"}, {"rating": "4", "name": "Ps Is 210 21st Century Academy For Community Lders", "zipcode": "10031", "longitude": "-73.94465", "grades": "PK-8", "latitude": "40.83001"}, {"rating": "4", "name": "A Philip Randolph Campus High School", "zipcode": "10031", "longitude": "-73.95027", "grades": "9-12", "latitude": "40.81817"}, {"rating": "4", "name": "Ps 242 The Young Diplomats Magnet School", "zipcode": "10027", "longitude": "-73.94833", "grades": "PK-5", "latitude": "40.806175"}, {"rating": "4", "name": "Community Action School Ms 258", "zipcode": "10025", "longitude": "-73.97077", "grades": "6-8", "latitude": "40.791683"}, {"rating": "4", "name": "Thurgood Marshall Academy For Learning And Social", "zipcode": "10030", "longitude": "-73.944305", "grades": "6-12", "latitude": "40.815296"}, {"rating": "4", "name": "Manhattan Bridges High School", "zipcode": "10019", "longitude": "-73.99299", "grades": "9-12", "latitude": "40.765594"}, {"rating": "4", "name": "Ps 180 Hugo Newman", "zipcode": "10027", "longitude": "-73.95584", "grades": "PK-8", "latitude": "40.80761"}, {"rating": "4", "name": "Urban Assembly Academy Of Government And Law", "zipcode": "10002", "longitude": "-73.98932", "grades": "9-12", "latitude": "40.717316"}, {"rating": "4", "name": "Lower Manhattan Arts Academy", "zipcode": "10002", "longitude": "-73.98932", "grades": "9-12", "latitude": "40.717316"}, {"rating": "4", "name": "University Neighborhood Middle School", "zipcode": "10002", "longitude": "-73.98607", "grades": "6-8", "latitude": "40.713345"}, {"rating": "4", "name": "High School Of Hospitality Management", "zipcode": "10019", "longitude": "-73.99299", "grades": "9-12", "latitude": "40.765594"}, {"rating": "4", "name": "River East Elementary School", "zipcode": "10035", "longitude": "-73.92998", "grades": "PK-5", "latitude": "40.796906"}, {"rating": "4", "name": "Amistad Dual Language School", "zipcode": "10034", "longitude": "-73.92382", "grades": "K-8", "latitude": "40.866524"}, {"rating": "4", "name": "Ms 324 Patria Mirabal", "zipcode": "10032", "longitude": "-73.935776", "grades": "6-8", "latitude": "40.83941"}, {"rating": "4", "name": "New Heights Academy Charter School", "zipcode": "10031", "longitude": "-73.945404", "grades": "5-12", "latitude": "40.828613"}, {"rating": "4", "name": "Collaborative Academy Of Science Technology And Lang", "zipcode": "10002", "longitude": "-73.98607", "grades": "6-8", "latitude": "40.713345"}, {"rating": "4", "name": "School For Global Leaders", "zipcode": "10002", "longitude": "-73.985954", "grades": "6-8", "latitude": "40.720184"}, {"rating": "4", "name": "Manhattan Business Academy", "zipcode": "10011", "longitude": "-74.00255", "grades": "9-12", "latitude": "40.743366"}, {"rating": "4", "name": "The Global Learning Collaborative", "zipcode": "10024", "longitude": "-73.974075", "grades": "9-12", "latitude": "40.785954"}, {"rating": "4", "name": "Academy of Innovative Technology", "zipcode": "11208", "longitude": "-73.869064", "grades": "9-12", "latitude": "40.693005"}, {"rating": "4", "name": "Urban Assembly New York Harbor School", "zipcode": "10004", "longitude": "-74.01083", "grades": "9-12", "latitude": "40.703037"}, {"rating": "4", "name": "Murray Hill Academy", "zipcode": "10016", "longitude": "-73.981026", "grades": "9-12", "latitude": "40.746433"}], "boston": [{"rating": "10", "name": "Eliot Elementary School", "zipcode": "02113", "longitude": "-71.053406", "grades": "PK-8", "latitude": "42.36619"}, {"rating": "10", "name": "Edward Brooke Charter School", "zipcode": "02131", "longitude": "-71.12195", "grades": "K-8", "latitude": "42.281948"}, {"rating": "10", "name": "Excel Academy Charter School", "zipcode": "02128", "longitude": "-71.01878", "grades": "5-8", "latitude": "42.3827"}, {"rating": "8", "name": "Boston Collegiate Charter School", "zipcode": "02125", "longitude": "-71.06085", "grades": "5-12", "latitude": "42.32161"}, {"rating": "8", "name": "Boston Latin School", "zipcode": "02115", "longitude": "-71.10151", "grades": "7-12", "latitude": "42.337852"}, {"rating": "8", "name": "Hale Elementary School", "zipcode": "02119", "longitude": "-71.09117", "grades": "PK-5", "latitude": "42.325176"}, {"rating": "8", "name": "Match Charter Public School", "zipcode": "02215", "longitude": "-71.12096", "grades": "PK-12", "latitude": "42.352287"}, {"rating": "8", "name": "Up Academy Charter School Of Boston", "zipcode": "02127", "longitude": "-71.05077", "grades": "6-8", "latitude": "42.333622"}, {"rating": "7", "name": "Academy of the Pacific Rim Charter Public School", "zipcode": "02136", "longitude": "-71.13203", "grades": "5-12", "latitude": "42.24423"}, {"rating": "7", "name": "City On A Hill Charter Public School", "zipcode": "02119", "longitude": "-71.087555", "grades": "9-12", "latitude": "42.323967"}, {"rating": "7", "name": "Neighborhood House Charter School", "zipcode": "02122", "longitude": "-71.05336", "grades": "PK-8", "latitude": "42.293217"}, {"rating": "7", "name": "Boston Latin Academy", "zipcode": "02121", "longitude": "-71.084755", "grades": "7-12", "latitude": "42.316795"}, {"rating": "7", "name": "Philbrick Elementary School", "zipcode": "02131", "longitude": "-71.11769", "grades": "PK-5", "latitude": "42.285385"}, {"rating": "7", "name": "Manning Elementary School", "zipcode": "02130", "longitude": "-71.13145", "grades": "PK-5", "latitude": "42.305466"}, {"rating": "7", "name": "Henderson Inclusion Elementary School", "zipcode": "02124", "longitude": "-71.06206", "grades": "PK-4", "latitude": "42.29384"}, {"rating": "7", "name": "New Mission High School", "zipcode": "02136", "longitude": "-71.11792", "grades": "9-12", "latitude": "42.26279"}, {"rating": "7", "name": "Boston Preparatory Charter Public School", "zipcode": "02136", "longitude": "-71.12358", "grades": "6-12", "latitude": "42.254826"}, {"rating": "6", "name": "Boston Renaissance Charter  Public School", "zipcode": "02136", "longitude": "-71.12669", "grades": "PK-6", "latitude": "42.25048"}, {"rating": "6", "name": "Guild Elementary School", "zipcode": "02128", "longitude": "-71.00426", "grades": "PK-5", "latitude": "42.38868"}, {"rating": "6", "name": "Tynan Elementary School", "zipcode": "02127", "longitude": "-71.03901", "grades": "PK-5", "latitude": "42.334526"}, {"rating": "6", "name": "Josiah Quincy Elementary School", "zipcode": "02111", "longitude": "-71.06499", "grades": "PK-5", "latitude": "42.34799"}, {"rating": "6", "name": "Warren-Prescott K-8 School", "zipcode": "02129", "longitude": "-71.06464", "grades": "PK-8", "latitude": "42.37789"}, {"rating": "6", "name": "Russell Elementary School", "zipcode": "02125", "longitude": "-71.059494", "grades": "PK-5", "latitude": "42.320362"}, {"rating": "6", "name": "Fenway High School", "zipcode": "02215", "longitude": "-71.09509", "grades": "9-12", "latitude": "42.34608"}, {"rating": "6", "name": "Roxbury Preparatory Charter School", "zipcode": "02120", "longitude": "-71.10513", "grades": "5-8", "latitude": "42.32761"}, {"rating": "6", "name": "Codman Academy Charter Public School", "zipcode": "02124", "longitude": "-71.07205", "grades": "PK-2, 5-6, 9-12", "latitude": "42.289413"}, {"rating": "6", "name": "Smith Leadership Academy Charter Public School", "zipcode": "02122", "longitude": "-71.05866", "grades": "6-8", "latitude": "42.30129"}, {"rating": "6", "name": "Boston Teachers Union School", "zipcode": "02130", "longitude": "-71.116", "grades": "PK-8", "latitude": "42.294662"}, {"rating": "5", "name": "Ellis Elementary School", "zipcode": "02119", "longitude": "-71.09221", "grades": "PK-5", "latitude": "42.316914"}, {"rating": "5", "name": "Conley Elementary School", "zipcode": "02131", "longitude": "-71.12732", "grades": "PK-5", "latitude": "42.274605"}, {"rating": "5", "name": "Jackson/Mann K-8 School", "zipcode": "02134", "longitude": "-71.1377", "grades": "PK-8", "latitude": "42.351997"}, {"rating": "5", "name": "Otis Elementary School", "zipcode": "02128", "longitude": "-71.033875", "grades": "PK-5", "latitude": "42.375256"}, {"rating": "5", "name": "John F Kennedy Elementary School", "zipcode": "02130", "longitude": "-71.10629", "grades": "PK-5", "latitude": "42.321945"}, {"rating": "5", "name": "McCormack Middle School", "zipcode": "02125", "longitude": "-71.04368", "grades": "6-8", "latitude": "42.318047"}, {"rating": "5", "name": "Kilmer K-8 School", "zipcode": "02132", "longitude": "-71.162544", "grades": "PK-8", "latitude": "42.271835"}, {"rating": "5", "name": "Patrick J Kennedy", "zipcode": "02128", "longitude": "-71.03048", "grades": "PK-5", "latitude": "42.378536"}, {"rating": "5", "name": "Dever Elementary School", "zipcode": "02125", "longitude": "-71.04277", "grades": "PK-5", "latitude": "42.31758"}, {"rating": "5", "name": "Murphy K-8 School", "zipcode": "02122", "longitude": "-71.04929", "grades": "PK-8", "latitude": "42.294346"}, {"rating": "5", "name": "Clap Innovation School", "zipcode": "02125", "longitude": "-71.05834", "grades": "PK-5", "latitude": "42.323025"}, {"rating": "5", "name": "Adams Elementary School", "zipcode": "02128", "longitude": "-71.03492", "grades": "PK-5", "latitude": "42.365555"}, {"rating": "5", "name": "Young Achievers Science and Math School", "zipcode": "02126", "longitude": "-71.09391", "grades": "PK-8", "latitude": "42.281975"}, {"rating": "5", "name": "Mary Lyon K-8 School", "zipcode": "02135", "longitude": "-71.16147", "grades": "K-8", "latitude": "42.35109"}, {"rating": "4", "name": "Taylor Elementary School", "zipcode": "02126", "longitude": "-71.077614", "grades": "PK-5", "latitude": "42.277405"}, {"rating": "4", "name": "Dearborn Middle School", "zipcode": "02119", "longitude": "-71.080925", "grades": "6-10", "latitude": "42.326454"}, {"rating": "4", "name": "Haley Elementary School", "zipcode": "02131", "longitude": "-71.10783", "grades": "PK-7", "latitude": "42.286377"}, {"rating": "4", "name": "McKay K-8 School", "zipcode": "02128", "longitude": "-71.03443", "grades": "K-8", "latitude": "42.369354"}, {"rating": "4", "name": "Elihu Greenwood Leadership Academy", "zipcode": "02136", "longitude": "-71.117485", "grades": "K-5", "latitude": "42.265385"}, {"rating": "4", "name": "Franklin D. Roosevelt K-8 School", "zipcode": "02136", "longitude": "-71.124084", "grades": "PK-8", "latitude": "42.24301"}, {"rating": "4", "name": "Harvard-Kent Elementary School", "zipcode": "02129", "longitude": "-71.057594", "grades": "PK-5", "latitude": "42.376938"}, {"rating": "4", "name": "Mather Elementary School", "zipcode": "02122", "longitude": "-71.06096", "grades": "PK-5", "latitude": "42.308388"}, {"rating": "4", "name": "Mozart Elementary School", "zipcode": "02131", "longitude": "-71.141045", "grades": "PK-5", "latitude": "42.281204"}, {"rating": "4", "name": "Perry K-8 School", "zipcode": "02127", "longitude": "-71.03022", "grades": "PK-8", "latitude": "42.332367"}, {"rating": "4", "name": "Bates Elementary School", "zipcode": "02131", "longitude": "-71.13535", "grades": "PK-5", "latitude": "42.277664"}, {"rating": "4", "name": "Gardner Pilot Academy", "zipcode": "02134", "longitude": "-71.13396", "grades": "PK-8", "latitude": "42.36078"}, {"rating": "4", "name": "Kenny Elementary School", "zipcode": "02122", "longitude": "-71.05323", "grades": "PK-5", "latitude": "42.286495"}, {"rating": "4", "name": "Washington Irving Middle School", "zipcode": "02131", "longitude": "-71.125374", "grades": "6-8", "latitude": "42.283394"}, {"rating": "4", "name": "Lyndon K-8 School", "zipcode": "02132", "longitude": "-71.158615", "grades": "PK-8", "latitude": "42.28289"}, {"rating": "4", "name": "Another Course To College", "zipcode": "02135", "longitude": "-71.14555", "grades": "9-12", "latitude": "42.350334"}, {"rating": "4", "name": "Conservatory Lab Charter School", "zipcode": "02124", "longitude": "-71.06636", "grades": "PK-8", "latitude": "42.27833"}, {"rating": "4", "name": "Boston Community Leadership Academy", "zipcode": "02136", "longitude": "-71.11792", "grades": "9-12", "latitude": "42.26279"}, {"rating": "4", "name": "Orchard Gardens K-8 School", "zipcode": "02119", "longitude": "-71.07728", "grades": "PK-8", "latitude": "42.33057"}, {"rating": "4", "name": "Urban Science Academy", "zipcode": "02132", "longitude": "-71.174835", "grades": "9-12", "latitude": "42.282154"}, {"rating": "4", "name": "Higginson/Lewis K-8", "zipcode": "02119", "longitude": "-71.08658", "grades": "PK-8", "latitude": "42.320538"}, {"rating": "4", "name": "Techboston Academy", "zipcode": "02124", "longitude": "-71.075935", "grades": "6-12", "latitude": "42.28527"}, {"rating": "4", "name": "Umana/Alighieri K-8", "zipcode": "02128", "longitude": "-71.04074", "grades": "K-8", "latitude": "42.378365"}, {"rating": "3", "name": "Edward M. Kennedy Academy For Health Careers (Hora", "zipcode": "02115", "longitude": "-71.0879", "grades": "9-12", "latitude": "42.339523"}, {"rating": "3", "name": "Sumner Elementary School", "zipcode": "02131", "longitude": "-71.12688", "grades": "PK-5", "latitude": "42.286407"}, {"rating": "3", "name": "Charlestown High School", "zipcode": "02129", "longitude": "-71.0611", "grades": "9-12", "latitude": "42.380077"}, {"rating": "3", "name": "Mendell Elementary School", "zipcode": "02130", "longitude": "-71.10166", "grades": "PK-5", "latitude": "42.316593"}, {"rating": "3", "name": "Jeremiah E Burke High School", "zipcode": "02121", "longitude": "-71.08116", "grades": "9-12", "latitude": "42.30715"}, {"rating": "3", "name": "Hurley K-8 School", "zipcode": "02118", "longitude": "-71.07803", "grades": "PK-8", "latitude": "42.338863"}, {"rating": "3", "name": "Lee Elementary School", "zipcode": "02124", "longitude": "-71.08024", "grades": "PK-8", "latitude": "42.292225"}, {"rating": "3", "name": "Bradley Elementary School", "zipcode": "02128", "longitude": "-71.00505", "grades": "PK-5", "latitude": "42.39163"}, {"rating": "3", "name": "Mason Elementary School", "zipcode": "02119", "longitude": "-71.07131", "grades": "PK-5", "latitude": "42.326134"}, {"rating": "3", "name": "Greenwood K-8 School", "zipcode": "02121", "longitude": "-71.08066", "grades": "PK-8", "latitude": "42.296597"}, {"rating": "3", "name": "Channing Elementary School", "zipcode": "02136", "longitude": "-71.13334", "grades": "PK-5", "latitude": "42.251553"}, {"rating": "3", "name": "William H Ohrenberger", "zipcode": "02132", "longitude": "-71.14969", "grades": "3-8", "latitude": "42.260788"}, {"rating": "3", "name": "Wm B Rogers Middle School", "zipcode": "02136", "longitude": "-71.12205", "grades": "6-8", "latitude": "42.258007"}, {"rating": "3", "name": "Boston Arts Academy", "zipcode": "02215", "longitude": "-71.09509", "grades": "9-12", "latitude": "42.34608"}, {"rating": "3", "name": "Mildred Avenue K-8", "zipcode": "02126", "longitude": "-71.090576", "grades": "K, 4-8", "latitude": "42.276844"}, {"rating": "3", "name": "Curley K-8 School", "zipcode": "02130", "longitude": "-71.1136", "grades": "PK-8", "latitude": "42.318623"}, {"rating": "3", "name": "Dorchester Collegiate Academy Charter", "zipcode": "02125", "longitude": "-71.063545", "grades": "4-8", "latitude": "42.31125"}, {"rating": "3", "name": "Edison K-8", "zipcode": "02135", "longitude": "-71.160164", "grades": "PK-8", "latitude": "42.345524"}, {"rating": "2", "name": "Blackstone Elementary School", "zipcode": "02118", "longitude": "-71.07206", "grades": "PK-5", "latitude": "42.34101"}, {"rating": "2", "name": "Brighton High School", "zipcode": "02135", "longitude": "-71.14547", "grades": "9-12", "latitude": "42.34901"}, {"rating": "2", "name": "Clarence R Edwards Middle School", "zipcode": "02129", "longitude": "-71.06738", "grades": "6-8", "latitude": "42.378635"}, {"rating": "2", "name": "Snowden Int'L High School", "zipcode": "02116", "longitude": "-71.07797", "grades": "9-12", "latitude": "42.35057"}, {"rating": "2", "name": "East Boston High School", "zipcode": "02128", "longitude": "-71.03508", "grades": "9-12", "latitude": "42.380943"}, {"rating": "2", "name": "Everett Elementary School", "zipcode": "02125", "longitude": "-71.05979", "grades": "PK-5", "latitude": "42.31362"}, {"rating": "2", "name": "O'Donnell Elementary School", "zipcode": "02128", "longitude": "-71.03808", "grades": "PK-5", "latitude": "42.37825"}, {"rating": "2", "name": "James Condon Elementary School", "zipcode": "02127", "longitude": "-71.05251", "grades": "PK-5", "latitude": "42.33816"}, {"rating": "2", "name": "James P Timilty Middle School", "zipcode": "02119", "longitude": "-71.09121", "grades": "6-8", "latitude": "42.33059"}, {"rating": "2", "name": "Hernandez K-8 School", "zipcode": "02119", "longitude": "-71.09784", "grades": "PK-8", "latitude": "42.313927"}, {"rating": "2", "name": "The English High School", "zipcode": "02130", "longitude": "-71.1088", "grades": "9-12", "latitude": "42.3064"}, {"rating": "2", "name": "Trotter Elementary School", "zipcode": "02121", "longitude": "-71.08799", "grades": "PK-6", "latitude": "42.315758"}, {"rating": "2", "name": "Quincy Upper School", "zipcode": "02116", "longitude": "-71.06885", "grades": "6-12", "latitude": "42.34845"}, {"rating": "2", "name": "Boston International  High School", "zipcode": "02124", "longitude": "-71.080864", "grades": "9-12", "latitude": "42.28121"}, {"rating": "2", "name": "Excel High School", "zipcode": "02127", "longitude": "-71.04483", "grades": "9-12", "latitude": "42.332905"}, {"rating": "2", "name": "Community Academy Of Science And Health", "zipcode": "02122", "longitude": "-71.061295", "grades": "9-12", "latitude": "42.30061"}, {"rating": "2", "name": "King K-8", "zipcode": "02121", "longitude": "-71.076485", "grades": "PK-8", "latitude": "42.311054"}, {"rating": "1", "name": "Boston Day And Evening Academy Charter School", "zipcode": "02119", "longitude": "-71.081726", "grades": "9-12", "latitude": "42.32691"}, {"rating": "1", "name": "Boston Green Academy Horace Mann Charter School", "zipcode": "02135", "longitude": "-71.14555", "grades": "6, 9-12", "latitude": "42.350334"}, {"rating": "1", "name": "Grew Elementary School", "zipcode": "02136", "longitude": "-71.12723", "grades": "K-5", "latitude": "42.25681"}, {"rating": "1", "name": "Chittick Elementary School", "zipcode": "02126", "longitude": "-71.10445", "grades": "PK-5", "latitude": "42.26739"}, {"rating": "1", "name": "Hennigan Elementary School", "zipcode": "02130", "longitude": "-71.10682", "grades": "K-6", "latitude": "42.326027"}, {"rating": "1", "name": "Holland Elementary School", "zipcode": "02121", "longitude": "-71.07381", "grades": "PK-5", "latitude": "42.306175"}, {"rating": "1", "name": "Winthrop Elementary School", "zipcode": "02125", "longitude": "-71.075134", "grades": "PK-5", "latitude": "42.318295"}, {"rating": "1", "name": "Madison Park High", "zipcode": "02120", "longitude": "-71.09084", "grades": "9-12", "latitude": "42.33206"}, {"rating": "1", "name": "Mattahunt Elementary School", "zipcode": "02126", "longitude": "-71.10339", "grades": "PK-5", "latitude": "42.276314"}, {"rating": "1", "name": "Perkins Elementary School", "zipcode": "02127", "longitude": "-71.08528", "grades": "K-5", "latitude": "42.337276"}, {"rating": "1", "name": "William Mckinley", "zipcode": "02116", "longitude": "-71.07321", "grades": "K-12", "latitude": "42.34463"}, {"rating": "1", "name": "Winship Elementary School", "zipcode": "02135", "longitude": "-71.15497", "grades": "PK-5", "latitude": "42.347725"}, {"rating": "1", "name": "Egleston Community High School", "zipcode": "02119", "longitude": "-71.09909", "grades": "9-12", "latitude": "42.3142"}, {"rating": "1", "name": "Mission Hill School", "zipcode": "02130", "longitude": "-71.1147", "grades": "PK-8", "latitude": "42.307693"}, {"rating": "1", "name": "Harbor School", "zipcode": "02124", "longitude": "-71.06974", "grades": "5-11", "latitude": "42.280937"}, {"rating": "1", "name": "Horace Mann School For The Deaf", "zipcode": "02134", "longitude": "-71.1377", "grades": "PK-12", "latitude": "42.351997"}, {"rating": "1", "name": "Holmes Elementary School", "zipcode": "02124", "longitude": "-71.0749", "grades": "PK-5", "latitude": "42.296677"}, {"rating": "1", "name": "Lilla G. Frederick Middle School", "zipcode": "02121", "longitude": "-71.0756", "grades": "6-8", "latitude": "42.309174"}, {"rating": "1", "name": "Dorchester Academy", "zipcode": "02122", "longitude": "-71.061295", "grades": "9-12", "latitude": "42.30061"}, {"rating": "1", "name": "Brook Farm/Media High", "zipcode": "02132", "longitude": "-71.174835", "grades": "9-12", "latitude": "42.282154"}, {"rating": "No Review", "name": "Bridge Boston Charter School", "zipcode": "02121", "longitude": "-71.08569", "grades": "PK-3", "latitude": "42.30125"}, {"rating": "No Review", "name": "EDCO Youth Alternative High School", "zipcode": "02215", "longitude": "-71.09579", "grades": "10-12", "latitude": "42.34943"}, {"rating": "No Review", "name": "Community Academy", "zipcode": "02130", "longitude": "-71.103676", "grades": "9-12", "latitude": "42.30892"}, {"rating": "No Review", "name": "Baldwin Early Learning Center", "zipcode": "02135", "longitude": "-71.140564", "grades": "PK-1", "latitude": "42.341946"}, {"rating": "No Review", "name": "Beethoven Elementary School", "zipcode": "02132", "longitude": "-71.15582", "grades": "PK-3", "latitude": "42.26352"}, {"rating": "No Review", "name": "Carter School", "zipcode": "02118", "longitude": "-71.08308", "grades": "7-12", "latitude": "42.340466"}, {"rating": "No Review", "name": "Dante Alighieri", "zipcode": "02132", "longitude": "-71.16124", "grades": "PK-4", "latitude": "42.268066"}, {"rating": "No Review", "name": "Dr. Catherine Ellison-Rosa Parks Early Ed School", "zipcode": "02126", "longitude": "-71.09168", "grades": "PK-3", "latitude": "42.271767"}, {"rating": "No Review", "name": "East Boston Early Childhood Center", "zipcode": "02132", "longitude": "-71.15796", "grades": "PK-1", "latitude": "42.26407"}, {"rating": "No Review", "name": "Haynes Early Education Center", "zipcode": "02119", "longitude": "-71.07895", "grades": "PK-1", "latitude": "42.315144"}, {"rating": "No Review", "name": "Elc - West Zone", "zipcode": "02130", "longitude": "-71.10682", "grades": "PK-1", "latitude": "42.326027"}, {"rating": "No Review", "name": "Gardner Academy For Learning And Technology", "zipcode": "02129", "longitude": "-71.07528", "grades": "9-12", "latitude": "42.38446"}, {"rating": "No Review", "name": "Cathedral Grammar School", "zipcode": "02118", "longitude": "-71.06883", "grades": "PK-6", "latitude": "42.340412"}, {"rating": "No Review", "name": "Cathedral High School", "zipcode": "02118", "longitude": "-71.06855", "grades": "7-12", "latitude": "42.340824"}, {"rating": "No Review", "name": "St John School", "zipcode": "02113", "longitude": "-71.052734", "grades": "PK-8", "latitude": "42.363953"}, {"rating": "No Review", "name": "St. Patrick School", "zipcode": "02119", "longitude": "-71.075554", "grades": "PK-8", "latitude": "42.325176"}, {"rating": "No Review", "name": "Gate of Heaven Elementary School", "zipcode": "02127", "longitude": "-71.0408", "grades": "PK-8", "latitude": "42.3347"}, {"rating": "No Review", "name": "St. Augustine Elementary School", "zipcode": "02127", "longitude": "-71.0528", "grades": "PK-8", "latitude": "42.3348"}, {"rating": "No Review", "name": "South Boston Catholic Academy", "zipcode": "02127", "longitude": "-71.02969", "grades": "PK-6", "latitude": "42.33591"}, {"rating": "No Review", "name": "St. Mary School", "zipcode": "02127", "longitude": "-71.05805", "grades": "PK-8", "latitude": "42.327812"}, {"rating": "No Review", "name": "St Peter Academy", "zipcode": "02127", "longitude": "-71.049965", "grades": "PK-8", "latitude": "42.336697"}, {"rating": "No Review", "name": "St Theresa School", "zipcode": "02132", "longitude": "-71.15852", "grades": "PK-8", "latitude": "42.27819"}, {"rating": "No Review", "name": "Pope John Paul Ii Catholic Academy Mattapan Campus", "zipcode": "02126", "longitude": "-71.09236", "grades": "PK-8", "latitude": "42.27088"}, {"rating": "No Review", "name": "St Columbkille Partnership School", "zipcode": "02135", "longitude": "-71.15297", "grades": "PK-8", "latitude": "42.351967"}, {"rating": "No Review", "name": "Cristo Rey Boston High School", "zipcode": "02125", "longitude": "-71.05415", "grades": "9-12", "latitude": "42.31209"}, {"rating": "No Review", "name": "Boston College High School", "zipcode": "02125", "longitude": "-71.046684", "grades": "7-12", "latitude": "42.31609"}, {"rating": "No Review", "name": "Pope John Paul Ii Catholic Academy Neponset Campus", "zipcode": "02122", "longitude": "-71.04918", "grades": "PK-8", "latitude": "42.29097"}, {"rating": "No Review", "name": "St Brendan School", "zipcode": "02124", "longitude": "-71.05104", "grades": "PK-6", "latitude": "42.282646"}, {"rating": "No Review", "name": "Pope John Paul Ii Catholic Academy Columbia Campus", "zipcode": "02127", "longitude": "-71.025", "grades": "PK-8", "latitude": "42.33312"}, {"rating": "No Review", "name": "Savio Preparatory High School", "zipcode": "02128", "longitude": "-71.01605", "grades": "9-12", "latitude": "42.3831"}, {"rating": "No Review", "name": "St. Mary Star of the Sea School", "zipcode": "02128", "longitude": "-71.01879", "grades": "PK-8", "latitude": "42.382717"}, {"rating": "No Review", "name": "East Boston Central Catholic School", "zipcode": "02128", "longitude": "-71.0397", "grades": "PK-8", "latitude": "42.37253"}, {"rating": "No Review", "name": "Catholic Memorial School", "zipcode": "02132", "longitude": "-71.16602", "grades": "7-12", "latitude": "42.27764"}, {"rating": "No Review", "name": "Kingsley Montessori School", "zipcode": "02116", "longitude": "-71.082306", "grades": "PK-6", "latitude": "42.350285"}, {"rating": "No Review", "name": "Shaloh House Jewish Day School", "zipcode": "02135", "longitude": "-71.154366", "grades": "PK-6", "latitude": "42.347874"}, {"rating": "No Review", "name": "Winsor School", "zipcode": "02215", "longitude": "-71.10751", "grades": "5-12", "latitude": "42.340862"}, {"rating": "No Review", "name": "The Newman School", "zipcode": "02116", "longitude": "-71.082085", "grades": "9-12", "latitude": "42.3522"}, {"rating": "No Review", "name": "Commonwealth School", "zipcode": "02116", "longitude": "-71.078156", "grades": "9-12", "latitude": "42.352352"}, {"rating": "No Review", "name": "Parkside Christian Academy", "zipcode": "02130", "longitude": "-71.10412", "grades": "PK-10", "latitude": "42.3051"}, {"rating": "No Review", "name": "Berea Sda Academy", "zipcode": "02126", "longitude": "-71.08787", "grades": "PK-8", "latitude": "42.282673"}, {"rating": "No Review", "name": "Learning Project Elementary School", "zipcode": "02116", "longitude": "-71.07708", "grades": "K-6", "latitude": "42.353542"}, {"rating": "No Review", "name": "Paige Academy", "zipcode": "02119", "longitude": "-71.09308", "grades": "PK-6", "latitude": "42.328754"}, {"rating": "No Review", "name": "Kids Are People Elementary School", "zipcode": "02215", "longitude": "-71.10029", "grades": "PK-6", "latitude": "42.34762"}, {"rating": "No Review", "name": "Mother Caroline Academy & Education Center", "zipcode": "02121", "longitude": "-71.08429", "grades": "5-8", "latitude": "42.307568"}, {"rating": "No Review", "name": "Wesley Child Care Center", "zipcode": "02124", "longitude": "-71.0798", "grades": "PK-5", "latitude": "42.28469"}, {"rating": "No Review", "name": "Boston Children's School", "zipcode": "02114", "longitude": "-71.06738", "grades": "PK-1", "latitude": "42.365566"}, {"rating": "No Review", "name": "New Beginnings Academy", "zipcode": "02136", "longitude": "-71.12502", "grades": "PK-12", "latitude": "42.25512"}, {"rating": "No Review", "name": "Boston Adult Academy", "zipcode": "02116", "longitude": "-71.068214", "grades": "11-12", "latitude": "42.348816"}, {"rating": "No Review", "name": "Boston Middle School Academy", "zipcode": "02127", "longitude": "-71.05077", "grades": "7-8", "latitude": "42.333622"}, {"rating": "No Review", "name": "St Herman Of Alaska Christian School", "zipcode": "02134", "longitude": "-71.13208", "grades": "K-8", "latitude": "42.354122"}, {"rating": "No Review", "name": "Italian Home For Children", "zipcode": "02130", "longitude": "-71.127106", "grades": "1-8", "latitude": "42.302956"}, {"rating": "No Review", "name": "Compass School", "zipcode": "02122", "longitude": "-71.06566", "grades": "2-12", "latitude": "42.307518"}, {"rating": "No Review", "name": "Mesivta High School Of Greater Boston", "zipcode": "02135", "longitude": "-71.151566", "grades": "9-12", "latitude": "42.35131"}, {"rating": "No Review", "name": "Epiphany School", "zipcode": "02124", "longitude": "-71.06548", "grades": "5-8", "latitude": "42.29208"}, {"rating": "No Review", "name": "Advent School", "zipcode": "02108", "longitude": "-71.07178", "grades": "PK-6", "latitude": "42.35821"}, {"rating": "No Review", "name": "Boston University Academy", "zipcode": "02215", "longitude": "-71.109566", "grades": "9-12", "latitude": "42.351067"}, {"rating": "No Review", "name": "Seaport Academy", "zipcode": "02129", "longitude": "-71.051636", "grades": "7-12", "latitude": "42.37378"}, {"rating": "No Review", "name": "Boston Children's School Annex", "zipcode": "02114", "longitude": "-71.0644", "grades": "PK-3", "latitude": "42.3652"}, {"rating": "No Review", "name": "Paige Academy at RCC", "zipcode": "02120", "longitude": "-71.09642", "grades": "n/a", "latitude": "42.328804"}, {"rating": "No Review", "name": "Park Street School", "zipcode": "02108", "longitude": "-71.071556", "grades": "K-6", "latitude": "42.356346"}, {"rating": "No Review", "name": "Lee Academy", "zipcode": "02124", "longitude": "-71.07271", "grades": "PK-1", "latitude": "42.286793"}, {"rating": "No Review", "name": "Park Street School", "zipcode": "02108", "longitude": "-71.07171", "grades": "PK-6", "latitude": "42.35649"}, {"rating": "No Review", "name": "Boston Trinity Academy", "zipcode": "02136", "longitude": "-71.12906", "grades": "6-12", "latitude": "42.258648"}, {"rating": "No Review", "name": "Nativity Preparatory School", "zipcode": "02130", "longitude": "-71.10175", "grades": "5-8", "latitude": "42.32151"}, {"rating": "No Review", "name": "British International School of Boston", "zipcode": "02130", "longitude": "-71.13009", "grades": "PK-12", "latitude": "42.309517"}, {"rating": "No Review", "name": "Holy Name Parish School", "zipcode": "02132", "longitude": "-71.14836", "grades": "PK-6", "latitude": "42.287403"}, {"rating": "No Review", "name": "German International School Boston", "zipcode": "02134", "longitude": "-71.13645", "grades": "PK-12", "latitude": "42.360123"}, {"rating": "No Review", "name": "Elizabeth Seton Academy", "zipcode": "02124", "longitude": "-71.06737", "grades": "9-12", "latitude": "42.27477"}, {"rating": "No Review", "name": "KIPP Academy Boston Charter School", "zipcode": "02119", "longitude": "-71.08186", "grades": "K, 5-7", "latitude": "42.317924"}, {"rating": "No Review", "name": "Brooke Charter School East Boston", "zipcode": "02128", "longitude": "-71.0163", "grades": "K-3, 5-7", "latitude": "42.382782"}, {"rating": "No Review", "name": "Margarita Muniz Academy", "zipcode": "02130", "longitude": "-71.1147", "grades": "9-11", "latitude": "42.307693"}, {"rating": "No Review", "name": "Kennedy Day", "zipcode": "02134", "longitude": "-71.14507", "grades": "n/a", "latitude": "42.349873"}, {"rating": "No Review", "name": "Kennedy Hope Academy", "zipcode": "02134", "longitude": "-71.14507", "grades": "7-12", "latitude": "42.349873"}, {"rating": "No Review", "name": "The Children's Cooperative Montessori School", "zipcode": "02136", "longitude": "-71.11356", "grades": "1-3", "latitude": "42.24865"}, {"rating": "No Review", "name": "Up Academy Charter School Of Dorchester", "zipcode": "02124", "longitude": "-71.07084", "grades": "PK-6", "latitude": "42.29964"}, {"rating": "No Review", "name": "Brooke Charter School Mattapan", "zipcode": "02124", "longitude": "-71.092545", "grades": "K-8", "latitude": "42.29483"}, {"rating": "No Review", "name": "Higginson", "zipcode": "02119", "longitude": "-71.091576", "grades": "PK-2", "latitude": "42.317677"}, {"rating": "No Review", "name": "City On A Hill Charter Public School Dudley Square", "zipcode": "02119", "longitude": "-71.08274", "grades": "9-10", "latitude": "42.331535"}, {"rating": "No Review", "name": "Dudley Street Neighborhood Charter School", "zipcode": "02119", "longitude": "-71.073135", "grades": "PK-3", "latitude": "42.32364"}], "san_francisco": [{"rating": "10", "name": "Asawa (Ruth) San Francisco School Of The Arts, A Public School.", "zipcode": "94131", "longitude": "-122.44999", "grades": "9-12", "latitude": "37.7459"}, {"rating": "10", "name": "Chin (John Yehall) Elementary School", "zipcode": "94133", "longitude": "-122.40321", "grades": "K-5", "latitude": "37.79861"}, {"rating": "10", "name": "Clarendon Alternative Elementary School", "zipcode": "94131", "longitude": "-122.45607", "grades": "K-5", "latitude": "37.752983"}, {"rating": "10", "name": "Giannini (A.P.) Middle School", "zipcode": "94122", "longitude": "-122.49702", "grades": "6-8", "latitude": "37.75145"}, {"rating": "10", "name": "Grattan Elementary School", "zipcode": "94117", "longitude": "-122.45053", "grades": "K-5", "latitude": "37.763885"}, {"rating": "10", "name": "Lafayette Elementary School", "zipcode": "94121", "longitude": "-122.49687", "grades": "K-5", "latitude": "37.777054"}, {"rating": "10", "name": "Lawton Alternative Elementary School", "zipcode": "94122", "longitude": "-122.48962", "grades": "K-8", "latitude": "37.757946"}, {"rating": "10", "name": "Lilienthal (Claire) Elementary School", "zipcode": "94123", "longitude": "-122.4429", "grades": "K-8", "latitude": "37.803314"}, {"rating": "10", "name": "Lowell High School", "zipcode": "94132", "longitude": "-122.48356", "grades": "9-12", "latitude": "37.731064"}, {"rating": "10", "name": "Miraloma Elementary School", "zipcode": "94127", "longitude": "-122.45021", "grades": "K-5", "latitude": "37.739334"}, {"rating": "10", "name": "Peabody (George) Elementary School", "zipcode": "94118", "longitude": "-122.46453", "grades": "K-5", "latitude": "37.783943"}, {"rating": "10", "name": "Stevenson (Robert Louis) Elementary School", "zipcode": "94116", "longitude": "-122.49224", "grades": "K-5", "latitude": "37.748848"}, {"rating": "10", "name": "Sunset Elementary School", "zipcode": "94116", "longitude": "-122.49983", "grades": "K-5", "latitude": "37.750744"}, {"rating": "10", "name": "Ulloa Elementary School", "zipcode": "94116", "longitude": "-122.49998", "grades": "K-5", "latitude": "37.737297"}, {"rating": "10", "name": "Yu (Alice Fong) Elementary School", "zipcode": "94122", "longitude": "-122.46928", "grades": "K-8", "latitude": "37.75941"}, {"rating": "10", "name": "Chinese Immersion School At Deavila", "zipcode": "94117", "longitude": "-122.44428", "grades": "K-5", "latitude": "37.769436"}, {"rating": "9", "name": "Alamo Elementary School", "zipcode": "94121", "longitude": "-122.48226", "grades": "K-5", "latitude": "37.783"}, {"rating": "9", "name": "Alvarado Elementary School", "zipcode": "94114", "longitude": "-122.43816", "grades": "K-5", "latitude": "37.753708"}, {"rating": "9", "name": "Balboa High School", "zipcode": "94112", "longitude": "-122.43982", "grades": "9-12", "latitude": "37.72206"}, {"rating": "9", "name": "Creative Arts Charter School", "zipcode": "94115", "longitude": "-122.43543", "grades": "K-8", "latitude": "37.780052"}, {"rating": "9", "name": "Galileo High School", "zipcode": "94109", "longitude": "-122.42407", "grades": "9-12", "latitude": "37.803375"}, {"rating": "9", "name": "Jefferson Elementary School", "zipcode": "94122", "longitude": "-122.47636", "grades": "K-5", "latitude": "37.763577"}, {"rating": "9", "name": "Key (Francis Scott) Elementary School", "zipcode": "94122", "longitude": "-122.50253", "grades": "K-5", "latitude": "37.758152"}, {"rating": "9", "name": "Lincoln (Abraham) High School", "zipcode": "94116", "longitude": "-122.48135", "grades": "9-12", "latitude": "37.747257"}, {"rating": "9", "name": "Mccoppin (Frank) Elementary School", "zipcode": "94118", "longitude": "-122.46398", "grades": "K-5", "latitude": "37.776283"}, {"rating": "9", "name": "McKinley Elementary School", "zipcode": "94114", "longitude": "-122.4366", "grades": "K-5", "latitude": "37.767254"}, {"rating": "9", "name": "New Traditions Elementary School", "zipcode": "94117", "longitude": "-122.45033", "grades": "K-5", "latitude": "37.77433"}, {"rating": "9", "name": "Presidio Middle School", "zipcode": "94121", "longitude": "-122.49013", "grades": "6-8", "latitude": "37.780827"}, {"rating": "9", "name": "Rooftop Elementary School", "zipcode": "94131", "longitude": "-122.44392", "grades": "K-8", "latitude": "37.75442"}, {"rating": "9", "name": "Sherman Elementary School", "zipcode": "94123", "longitude": "-122.42611", "grades": "K-5", "latitude": "37.797802"}, {"rating": "9", "name": "Sloat (Commodore) Elementary School", "zipcode": "94127", "longitude": "-122.47096", "grades": "K-5", "latitude": "37.73191"}, {"rating": "9", "name": "Sutro Elementary School", "zipcode": "94118", "longitude": "-122.47099", "grades": "K-5", "latitude": "37.783928"}, {"rating": "9", "name": "West Portal Elementary School", "zipcode": "94127", "longitude": "-122.46471", "grades": "K-5", "latitude": "37.74357"}, {"rating": "9", "name": "Washington (George) High School", "zipcode": "94121", "longitude": "-122.49207", "grades": "9-12", "latitude": "37.77778"}, {"rating": "9", "name": "Yick Wo Elementary School", "zipcode": "94133", "longitude": "-122.41627", "grades": "K-5", "latitude": "37.801907"}, {"rating": "9", "name": "Buri Buri Elementary School", "zipcode": "94080", "longitude": "-122.44565", "grades": "K-5", "latitude": "37.65615"}, {"rating": "9", "name": "Westborough Middle School", "zipcode": "94080", "longitude": "-122.461", "grades": "6-8", "latitude": "37.644135"}, {"rating": "9", "name": "Feinstein (Dianne) Elementary School", "zipcode": "94116", "longitude": "-122.48189", "grades": "K-5", "latitude": "37.739964"}, {"rating": "9", "name": "San Francisco Public Montessori School", "zipcode": "94115", "longitude": "-122.433624", "grades": "K-5", "latitude": "37.79276"}, {"rating": "8", "name": "Argonne Elementary School", "zipcode": "94121", "longitude": "-122.47683", "grades": "K-5", "latitude": "37.775143"}, {"rating": "8", "name": "Garfield Elementary School", "zipcode": "94133", "longitude": "-122.40673", "grades": "K-5", "latitude": "37.80177"}, {"rating": "8", "name": "Gateway High School", "zipcode": "94115", "longitude": "-122.43702", "grades": "9-12", "latitude": "37.783222"}, {"rating": "8", "name": "Hoover (Herbert) Middle School", "zipcode": "94116", "longitude": "-122.47034", "grades": "6-8", "latitude": "37.745346"}, {"rating": "8", "name": "Lau (Gordon J.) Elementary School", "zipcode": "94108", "longitude": "-122.40879", "grades": "K-5", "latitude": "37.794403"}, {"rating": "8", "name": "Ortega (Jose) Elementary School", "zipcode": "94132", "longitude": "-122.46626", "grades": "K-5", "latitude": "37.71614"}, {"rating": "8", "name": "Parks (Rosa) Elementary School", "zipcode": "94115", "longitude": "-122.42946", "grades": "K-5", "latitude": "37.78371"}, {"rating": "8", "name": "Roosevelt Middle School", "zipcode": "94118", "longitude": "-122.45835", "grades": "6-8", "latitude": "37.782288"}, {"rating": "8", "name": "Sunnyside Elementary School", "zipcode": "94112", "longitude": "-122.448715", "grades": "K-5", "latitude": "37.730278"}, {"rating": "8", "name": "Taylor (Edward R.) Elementary School", "zipcode": "94134", "longitude": "-122.40734", "grades": "K-5", "latitude": "37.728024"}, {"rating": "8", "name": "Wallenberg (Raoul) Traditional High School", "zipcode": "94115", "longitude": "-122.44575", "grades": "9-12", "latitude": "37.780144"}, {"rating": "8", "name": "El Camino High School", "zipcode": "94080", "longitude": "-122.44122", "grades": "9-12", "latitude": "37.667103"}, {"rating": "8", "name": "Gateway Middle School", "zipcode": "94115", "longitude": "-122.436005", "grades": "6-8", "latitude": "37.779438"}, {"rating": "8", "name": "KIPP San Francisco College Preparatory", "zipcode": "94124", "longitude": "-122.38247", "grades": "9-12", "latitude": "37.732307"}, {"rating": "7", "name": "Aptos Middle School", "zipcode": "94127", "longitude": "-122.46627", "grades": "6-8", "latitude": "37.73024"}, {"rating": "7", "name": "Lakeshore Alternative Elementary School", "zipcode": "94132", "longitude": "-122.48618", "grades": "K-5", "latitude": "37.730606"}, {"rating": "7", "name": "Marina Middle School", "zipcode": "94123", "longitude": "-122.43639", "grades": "6-8", "latitude": "37.801666"}, {"rating": "7", "name": "Milk (Harvey) Civil Rights Elementary School", "zipcode": "94114", "longitude": "-122.43634", "grades": "K-5", "latitude": "37.759174"}, {"rating": "7", "name": "Monroe Elementary School", "zipcode": "94112", "longitude": "-122.43048", "grades": "K-5", "latitude": "37.7254"}, {"rating": "7", "name": "Moscone (George R.) Elementary School", "zipcode": "94110", "longitude": "-122.41227", "grades": "K-5", "latitude": "37.75624"}, {"rating": "7", "name": "Parker (Jean) Elementary School", "zipcode": "94133", "longitude": "-122.41102", "grades": "K-5", "latitude": "37.797615"}, {"rating": "7", "name": "Spring Valley Elementary School", "zipcode": "94109", "longitude": "-122.419", "grades": "K-5", "latitude": "37.794434"}, {"rating": "7", "name": "King (Starr) Elementary School", "zipcode": "94107", "longitude": "-122.39938", "grades": "K-5", "latitude": "37.75276"}, {"rating": "7", "name": "Visitacion Valley Elementary School", "zipcode": "94134", "longitude": "-122.4104", "grades": "K-5", "latitude": "37.71269"}, {"rating": "7", "name": "Alta Loma Middle School", "zipcode": "94080", "longitude": "-122.45067", "grades": "6-8", "latitude": "37.660545"}, {"rating": "7", "name": "Parkway Heights Middle School", "zipcode": "94080", "longitude": "-122.42398", "grades": "6-8", "latitude": "37.662346"}, {"rating": "7", "name": "South San Francisco High School", "zipcode": "94080", "longitude": "-122.42661", "grades": "9-12", "latitude": "37.647785"}, {"rating": "7", "name": "Mission Preparatory School", "zipcode": "94112", "longitude": "-122.434975", "grades": "K-8", "latitude": "37.72723"}, {"rating": "6", "name": "Burton (Phillip And Sala) Academic High School", "zipcode": "94134", "longitude": "-122.40506", "grades": "9-12", "latitude": "37.720673"}, {"rating": "6", "name": "Everett Middle School", "zipcode": "94114", "longitude": "-122.42968", "grades": "6-8", "latitude": "37.76362"}, {"rating": "6", "name": "Francisco Middle School", "zipcode": "94133", "longitude": "-122.41172", "grades": "6-8", "latitude": "37.80481"}, {"rating": "6", "name": "Longfellow Elementary School", "zipcode": "94112", "longitude": "-122.4477", "grades": "K-5", "latitude": "37.710484"}, {"rating": "6", "name": "Marshall Elementary School", "zipcode": "94103", "longitude": "-122.4191", "grades": "K-5", "latitude": "37.766705"}, {"rating": "6", "name": "Redding Elementary School", "zipcode": "94109", "longitude": "-122.41922", "grades": "K-5", "latitude": "37.789753"}, {"rating": "6", "name": "Ponderosa Elementary School", "zipcode": "94080", "longitude": "-122.43267", "grades": "K-5", "latitude": "37.64636"}, {"rating": "6", "name": "Sunshine Gardens Elementary School", "zipcode": "94080", "longitude": "-122.43611", "grades": "K-5", "latitude": "37.665836"}, {"rating": "6", "name": "KIPP Bayview Academy", "zipcode": "94124", "longitude": "-122.39597", "grades": "5-8", "latitude": "37.7192"}, {"rating": "6", "name": "KIPP San Francisco Bay Academy", "zipcode": "94115", "longitude": "-122.43702", "grades": "5-8", "latitude": "37.783222"}, {"rating": "6", "name": "City Arts And Tech High School", "zipcode": "94112", "longitude": "-122.42553", "grades": "9-12", "latitude": "37.720005"}, {"rating": "6", "name": "Academy Of Arts And Sciences", "zipcode": "94131", "longitude": "-122.44999", "grades": "9-12", "latitude": "37.7459"}, {"rating": "5", "name": "Carmichael (Bessie)/Fec", "zipcode": "94103", "longitude": "-122.40645", "grades": "K-8", "latitude": "37.776093"}, {"rating": "5", "name": "Denman (James) Middle School", "zipcode": "94112", "longitude": "-122.4433", "grades": "6-8", "latitude": "37.722015"}, {"rating": "5", "name": "Fairmount Elementary School", "zipcode": "94131", "longitude": "-122.42562", "grades": "K-5", "latitude": "37.740654"}, {"rating": "5", "name": "Hillcrest Elementary School", "zipcode": "94134", "longitude": "-122.41924", "grades": "K-5", "latitude": "37.729053"}, {"rating": "5", "name": "Buena Vista/ Horace Mann K-8", "zipcode": "94110", "longitude": "-122.41974", "grades": "K-8", "latitude": "37.75374"}, {"rating": "5", "name": "Mission High School", "zipcode": "94114", "longitude": "-122.42728", "grades": "9-12", "latitude": "37.761375"}, {"rating": "5", "name": "O'connell (John) High School", "zipcode": "94110", "longitude": "-122.41472", "grades": "9-12", "latitude": "37.75962"}, {"rating": "5", "name": "San Francisco Flex Academy", "zipcode": "94124", "longitude": "-122.46383", "grades": "9-12 & ungraded", "latitude": "37.76324"}, {"rating": "4", "name": "Bryant Elementary School", "zipcode": "94110", "longitude": "-122.40849", "grades": "K-5", "latitude": "37.755257"}, {"rating": "4", "name": "Flynn (Leonard R.) Elementary School", "zipcode": "94110", "longitude": "-122.41203", "grades": "K-5", "latitude": "37.748215"}, {"rating": "4", "name": "King Jr. (Martin Luther) Academic Middle School", "zipcode": "94134", "longitude": "-122.40488", "grades": "6-8", "latitude": "37.727955"}, {"rating": "4", "name": "Lick (James) Middle School", "zipcode": "94114", "longitude": "-122.43172", "grades": "6-8", "latitude": "37.749542"}, {"rating": "4", "name": "Serra (Junipero) Elementary School", "zipcode": "94110", "longitude": "-122.4211", "grades": "K-5", "latitude": "37.736736"}, {"rating": "4", "name": "San Francisco Community Alternative School", "zipcode": "94112", "longitude": "-122.43264", "grades": "K-8", "latitude": "37.72579"}, {"rating": "4", "name": "Sheridan Elementary School", "zipcode": "94112", "longitude": "-122.45909", "grades": "K-5", "latitude": "37.714333"}, {"rating": "4", "name": "Tenderloin Community", "zipcode": "94102", "longitude": "-122.41974", "grades": "K-5", "latitude": "37.781815"}, {"rating": "4", "name": "Daniel Webster Elementary School", "zipcode": "94107", "longitude": "-122.39588", "grades": "K-5", "latitude": "37.76067"}, {"rating": "4", "name": "Los Cerritos Elementary School", "zipcode": "94080", "longitude": "-122.42745", "grades": "K-5", "latitude": "37.650963"}, {"rating": "4", "name": "Martin Elementary School", "zipcode": "94080", "longitude": "-122.41016", "grades": "K-5", "latitude": "37.66367"}, {"rating": "3", "name": "Chinese Education Center", "zipcode": "94111", "longitude": "-122.40415", "grades": "K-5", "latitude": "37.79493"}, {"rating": "3", "name": "El Dorado Elementary School", "zipcode": "94134", "longitude": "-122.4067", "grades": "K-5", "latitude": "37.719257"}, {"rating": "3", "name": "Glen Park Elementary School", "zipcode": "94131", "longitude": "-122.43583", "grades": "K-5", "latitude": "37.73317"}, {"rating": "3", "name": "Guadalupe Elementary School", "zipcode": "94112", "longitude": "-122.43442", "grades": "K-5", "latitude": "37.71046"}, {"rating": "3", "name": "International Studies Academy", "zipcode": "94107", "longitude": "-122.40123", "grades": "9-12", "latitude": "37.761593"}, {"rating": "3", "name": "Marshall (Thurgood) High School", "zipcode": "94124", "longitude": "-122.4019", "grades": "9-12", "latitude": "37.73569"}, {"rating": "3", "name": "Muir (John) Elementary School", "zipcode": "94117", "longitude": "-122.42866", "grades": "K-5", "latitude": "37.773766"}, {"rating": "3", "name": "Revere (Paul) Elementary School", "zipcode": "94110", "longitude": "-122.41318", "grades": "K-8", "latitude": "37.737114"}, {"rating": "3", "name": "Spruce Elementary School", "zipcode": "94080", "longitude": "-122.41619", "grades": "K-5", "latitude": "37.65904"}, {"rating": "3", "name": "Edison Charter Academy", "zipcode": "94114", "longitude": "-122.42637", "grades": "K-8", "latitude": "37.75459"}, {"rating": "2", "name": "Jordan (June) School For Equity", "zipcode": "94112", "longitude": "-122.42553", "grades": "9-12", "latitude": "37.720005"}, {"rating": "2", "name": "Carver (George Washington) Elementary School", "zipcode": "94124", "longitude": "-122.3864", "grades": "K-5", "latitude": "37.73238"}, {"rating": "2", "name": "Chavez (Cesar) Elementary School", "zipcode": "94110", "longitude": "-122.41487", "grades": "K-5", "latitude": "37.754913"}, {"rating": "2", "name": "Cleveland Elementary School", "zipcode": "94112", "longitude": "-122.42907", "grades": "K-5", "latitude": "37.72075"}, {"rating": "2", "name": "Cobb (William L.) Elementary School", "zipcode": "94115", "longitude": "-122.43919", "grades": "K-5", "latitude": "37.7882"}, {"rating": "2", "name": "Drew (Charles) College Preparatory Academy", "zipcode": "94124", "longitude": "-122.39351", "grades": "K-5", "latitude": "37.731773"}, {"rating": "2", "name": "Leadership High School", "zipcode": "94112", "longitude": "-122.445595", "grades": "9-12", "latitude": "37.721542"}, {"rating": "2", "name": "Sanchez Elementary School", "zipcode": "94114", "longitude": "-122.4308", "grades": "K-5", "latitude": "37.76396"}, {"rating": "2", "name": "Visitacion Valley Middle School", "zipcode": "94134", "longitude": "-122.4125", "grades": "6-8", "latitude": "37.714745"}, {"rating": "2", "name": "S.F. International High School", "zipcode": "94110", "longitude": "-122.42728", "grades": "9-12", "latitude": "37.761375"}, {"rating": "1", "name": "Harte (Bret) Elementary School", "zipcode": "94124", "longitude": "-122.38888", "grades": "K-5", "latitude": "37.71863"}, {"rating": "1", "name": "Malcolm X Academy", "zipcode": "94124", "longitude": "-122.38063", "grades": "K-5", "latitude": "37.73371"}, {"rating": "1", "name": "Mission Education Center", "zipcode": "94131", "longitude": "-122.43102", "grades": "K-5", "latitude": "37.742287"}, {"rating": "No Review", "name": "German International School of Silicon Valley - San Francisco Campus", "zipcode": "94129", "longitude": "-122.455536", "grades": "K-8", "latitude": "37.800022"}, {"rating": "No Review", "name": "Downtown High School", "zipcode": "94107", "longitude": "-122.40411", "grades": "9-12", "latitude": "37.760937"}, {"rating": "No Review", "name": "Edison Charter Academy", "zipcode": "94114", "longitude": "-122.4262", "grades": "K-8", "latitude": "37.754932"}, {"rating": "No Review", "name": "Life Learning Academy Charter", "zipcode": "94130", "longitude": "-122.36548", "grades": "9-12", "latitude": "37.826077"}, {"rating": "No Review", "name": "Wells (Ida B.) High School", "zipcode": "94117", "longitude": "-122.43446", "grades": "9-12", "latitude": "37.775417"}, {"rating": "No Review", "name": "Baden High (Continuation) School", "zipcode": "94080", "longitude": "-122.43506", "grades": "9-12", "latitude": "37.64967"}, {"rating": "No Review", "name": "Hillside Elementary", "zipcode": "94080", "longitude": "-122.424385", "grades": "PK-5", "latitude": "37.668633"}, {"rating": "No Review", "name": "Corpus Christi School", "zipcode": "94112", "longitude": "-122.43526", "grades": "K-8", "latitude": "37.72703"}, {"rating": "No Review", "name": "Ecole Notre Dame Des Victoires", "zipcode": "94108", "longitude": "-122.40667", "grades": "K-8", "latitude": "37.79124"}, {"rating": "No Review", "name": "Epiphany Elementary School", "zipcode": "94112", "longitude": "-122.43469", "grades": "K-8", "latitude": "37.71587"}, {"rating": "No Review", "name": "Holy Name Elementary School", "zipcode": "94122", "longitude": "-122.49905", "grades": "K-8", "latitude": "37.757755"}, {"rating": "No Review", "name": "Immaculate Conception Academy", "zipcode": "94110", "longitude": "-122.42352", "grades": "9-12", "latitude": "37.751858"}, {"rating": "No Review", "name": "St John S Elementary School", "zipcode": "94131", "longitude": "-122.43787", "grades": "n/a", "latitude": "37.735073"}, {"rating": "No Review", "name": "Mercy High School", "zipcode": "94132", "longitude": "-122.47387", "grades": "9-12", "latitude": "37.729416"}, {"rating": "No Review", "name": "Mission Dolores Academy", "zipcode": "94114", "longitude": "-122.42843", "grades": "K-8", "latitude": "37.7642"}, {"rating": "No Review", "name": "Our Lady Of The Visitacion Elementary School", "zipcode": "94134", "longitude": "-122.40916", "grades": "K-8", "latitude": "37.7094"}, {"rating": "No Review", "name": "Archbishop Riordan High School", "zipcode": "94112", "longitude": "-122.453636", "grades": "9-12", "latitude": "37.728203"}, {"rating": "No Review", "name": "Sacred Heart Cathedral Preparatory", "zipcode": "94109", "longitude": "-122.423515", "grades": "9-12", "latitude": "37.78326"}, {"rating": "No Review", "name": "Saint Anne School", "zipcode": "94122", "longitude": "-122.47144", "grades": "K-8", "latitude": "37.76338"}, {"rating": "No Review", "name": "St. Anthony Immaculate Conception", "zipcode": "94110", "longitude": "-122.41387", "grades": "K-8", "latitude": "37.747505"}, {"rating": "No Review", "name": "St. Brendan Elementary School", "zipcode": "94127", "longitude": "-122.45649", "grades": "K-8", "latitude": "37.7428"}, {"rating": "No Review", "name": "St. Brigid School", "zipcode": "94109", "longitude": "-122.42485", "grades": "K-8", "latitude": "37.79536"}, {"rating": "No Review", "name": "St. Cecilia Elementary School", "zipcode": "94116", "longitude": "-122.47417", "grades": "K-8", "latitude": "37.73981"}, {"rating": "No Review", "name": "St. Charles Elementary School", "zipcode": "94110", "longitude": "-122.41643", "grades": "K-8", "latitude": "37.762245"}, {"rating": "No Review", "name": "Mission Dolores Academy", "zipcode": "94114", "longitude": "-122.428024", "grades": "K-8", "latitude": "37.764545"}, {"rating": "No Review", "name": "St. Elizabeth School", "zipcode": "94134", "longitude": "-122.40732", "grades": "K-8", "latitude": "37.725956"}, {"rating": "No Review", "name": "St. Finn Barr", "zipcode": "94112", "longitude": "-122.44751", "grades": "K-8", "latitude": "37.730377"}, {"rating": "No Review", "name": "St. Gabriel Elementary School", "zipcode": "94116", "longitude": "-122.49888", "grades": "K-8", "latitude": "37.7395"}, {"rating": "No Review", "name": "St. Ignatius College Preparatory School", "zipcode": "94116", "longitude": "-122.49593", "grades": "9-12", "latitude": "37.74807"}, {"rating": "No Review", "name": "St. James School", "zipcode": "94110", "longitude": "-122.42395", "grades": "K-8", "latitude": "37.75132"}, {"rating": "No Review", "name": "St. Mary's School", "zipcode": "94108", "longitude": "-122.40486", "grades": "PK-8", "latitude": "37.79589"}, {"rating": "No Review", "name": "St. Paul's School", "zipcode": "94131", "longitude": "-122.42699", "grades": "K-8", "latitude": "37.744064"}, {"rating": "No Review", "name": "St. Peter's School", "zipcode": "94110", "longitude": "-122.409996", "grades": "K-8", "latitude": "37.75167"}, {"rating": "No Review", "name": "Sts. Peter And Paul K-8", "zipcode": "94123", "longitude": "-122.41045", "grades": "K-9", "latitude": "37.801437"}, {"rating": "No Review", "name": "St. Philip School", "zipcode": "94114", "longitude": "-122.4355", "grades": "K-8", "latitude": "37.751846"}, {"rating": "No Review", "name": "St. Stephen School", "zipcode": "94132", "longitude": "-122.47728", "grades": "K-8", "latitude": "37.730804"}, {"rating": "No Review", "name": "St. Thomas The Apostle School", "zipcode": "94121", "longitude": "-122.499664", "grades": "K-8", "latitude": "37.77527"}, {"rating": "No Review", "name": "St. Thomas More", "zipcode": "94132", "longitude": "-122.47356", "grades": "K-8", "latitude": "37.712734"}, {"rating": "No Review", "name": "Saint Vincent De Paul", "zipcode": "94123", "longitude": "-122.437836", "grades": "K-8", "latitude": "37.795864"}, {"rating": "No Review", "name": "Star Of The Sea School", "zipcode": "94118", "longitude": "-122.46755", "grades": "K-8", "latitude": "37.781837"}, {"rating": "No Review", "name": "All Souls Catholic Elementary School", "zipcode": "94080", "longitude": "-122.41546", "grades": "K-8", "latitude": "37.657253"}, {"rating": "No Review", "name": "Mater Dolorosa", "zipcode": "94080", "longitude": "-122.4338", "grades": "K-8", "latitude": "37.6618"}, {"rating": "No Review", "name": "St. Veronica Catholic School", "zipcode": "94080", "longitude": "-122.42978", "grades": "K-8", "latitude": "37.646152"}, {"rating": "No Review", "name": "St. Monica School", "zipcode": "94121", "longitude": "-122.4833", "grades": "K-8", "latitude": "37.780235"}, {"rating": "No Review", "name": "Cathedral School For Boys", "zipcode": "94108", "longitude": "-122.413895", "grades": "K-8", "latitude": "37.792393"}, {"rating": "No Review", "name": "Oakes Children's Center", "zipcode": "94110", "longitude": "-122.41268", "grades": "K-8", "latitude": "37.74593"}, {"rating": "No Review", "name": "Live Oak School", "zipcode": "94107", "longitude": "-122.39906", "grades": "K-8", "latitude": "37.76354"}, {"rating": "No Review", "name": "San Francisco School, The", "zipcode": "94134", "longitude": "-122.4117", "grades": "K-8", "latitude": "37.73278"}, {"rating": "No Review", "name": "Town School For Boys", "zipcode": "94115", "longitude": "-122.4399", "grades": "K-8", "latitude": "37.791977"}, {"rating": "No Review", "name": "Challenge To Learning", "zipcode": "94118", "longitude": "-122.4686", "grades": "7-12", "latitude": "37.777"}, {"rating": "No Review", "name": "West Portal Lutheran Elementary School", "zipcode": "94132", "longitude": "-122.47373", "grades": "K-8", "latitude": "37.735237"}, {"rating": "No Review", "name": "Zion Lutheran School", "zipcode": "94118", "longitude": "-122.467636", "grades": "K-8", "latitude": "37.77924"}, {"rating": "No Review", "name": "San Francisco Christian School", "zipcode": "94112", "longitude": "-122.44773", "grades": "K-12", "latitude": "37.710068"}, {"rating": "No Review", "name": "Katherine Delmar Burke School", "zipcode": "94121", "longitude": "-122.49302", "grades": "K-8", "latitude": "37.783684"}, {"rating": "No Review", "name": "San Francisco University High School", "zipcode": "94115", "longitude": "-122.44542", "grades": "9-12", "latitude": "37.790936"}, {"rating": "No Review", "name": "Hamlin, The", "zipcode": "94115", "longitude": "-122.43243", "grades": "K-8", "latitude": "37.79489"}, {"rating": "No Review", "name": "Lick-Wilmerding High School", "zipcode": "94112", "longitude": "-122.44892", "grades": "9-12", "latitude": "37.72235"}, {"rating": "No Review", "name": "Burt Children's Center", "zipcode": "94117", "longitude": "-122.432755", "grades": "1, 3-7", "latitude": "37.77688"}, {"rating": "No Review", "name": "Hergl", "zipcode": "94123", "longitude": "-122.42577", "grades": "K-12", "latitude": "37.80037"}, {"rating": "No Review", "name": "Kittredge, Inc.", "zipcode": "94121", "longitude": "-122.484955", "grades": "K-8", "latitude": "37.785507"}, {"rating": "No Review", "name": "The Laurel School", "zipcode": "94118", "longitude": "-122.46676", "grades": "K-8", "latitude": "37.78192"}, {"rating": "No Review", "name": "Edgewood Center For Children & Families", "zipcode": "94116", "longitude": "-122.48626", "grades": "2-12", "latitude": "37.737984"}, {"rating": "No Review", "name": "Maria Montessori School", "zipcode": "94127", "longitude": "-122.45343", "grades": "K-5, 8", "latitude": "37.74501"}, {"rating": "No Review", "name": "Presidio Hill School", "zipcode": "94118", "longitude": "-122.45624", "grades": "PK-8", "latitude": "37.788845"}, {"rating": "No Review", "name": "Sterne School", "zipcode": "94115", "longitude": "-122.43939", "grades": "5-12", "latitude": "37.792"}, {"rating": "No Review", "name": "Synergy School", "zipcode": "94110", "longitude": "-122.4204", "grades": "K-8", "latitude": "37.7509"}, {"rating": "No Review", "name": "Urban School Of San Francisco", "zipcode": "94117", "longitude": "-122.44646", "grades": "9-12", "latitude": "37.770737"}, {"rating": "No Review", "name": "Hillwood Academic Day School", "zipcode": "94115", "longitude": "-122.44012", "grades": "1-8", "latitude": "37.793324"}, {"rating": "No Review", "name": "The Brandeis School of San Francisco", "zipcode": "94132", "longitude": "-122.4756", "grades": "K-8", "latitude": "37.713284"}, {"rating": "No Review", "name": "San Francisco Adventist", "zipcode": "94112", "longitude": "-122.45112", "grades": "K-8", "latitude": "37.72175"}, {"rating": "No Review", "name": "French American International School", "zipcode": "94102", "longitude": "-122.42175", "grades": "K-12", "latitude": "37.77534"}, {"rating": "No Review", "name": "Stuart Hall For Boys", "zipcode": "94115", "longitude": "-122.43432", "grades": "K-8", "latitude": "37.794376"}, {"rating": "No Review", "name": "San Francisco Waldorf School", "zipcode": "94115", "longitude": "-122.44168", "grades": "PK-8 & ungraded", "latitude": "37.790688"}, {"rating": "No Review", "name": "Voice Of Pentecost Academy", "zipcode": "94127", "longitude": "-122.464035", "grades": "K-12", "latitude": "37.726357"}, {"rating": "No Review", "name": "Erikson School", "zipcode": "94124", "longitude": "-122.484276", "grades": "6-12", "latitude": "37.77556"}, {"rating": "No Review", "name": "Kzv Armenian School", "zipcode": "94132", "longitude": "-122.47831", "grades": "PK-8", "latitude": "37.713943"}, {"rating": "No Review", "name": "Cornerstone Academy-Silver Campus", "zipcode": "94134", "longitude": "-122.41881", "grades": "K-5", "latitude": "37.729637"}, {"rating": "No Review", "name": "Drew School", "zipcode": "94115", "longitude": "-122.4424", "grades": "9-12", "latitude": "37.7876"}, {"rating": "No Review", "name": "Adda Clevenger School", "zipcode": "94110", "longitude": "-122.42452", "grades": "K-8", "latitude": "37.7537"}], "chicago": [{"rating": "10", "name": "Bell Elementary School", "zipcode": "60618", "longitude": "-87.68673", "grades": "PK-8", "latitude": "41.949543"}, {"rating": "10", "name": "Blaine Elementary School", "zipcode": "60613", "longitude": "-87.66513", "grades": "PK-8", "latitude": "41.95093"}, {"rating": "10", "name": "Burley Elementary School", "zipcode": "60657", "longitude": "-87.669716", "grades": "PK-8", "latitude": "41.93808"}, {"rating": "10", "name": "Canty Elementary School", "zipcode": "60634", "longitude": "-87.829765", "grades": "PK-8", "latitude": "41.947895"}, {"rating": "10", "name": "Coonley Elementary School", "zipcode": "60618", "longitude": "-87.68405", "grades": "PK-8", "latitude": "41.955544"}, {"rating": "10", "name": "Decatur Classical Elementary School", "zipcode": "60645", "longitude": "-87.7047", "grades": "K-6", "latitude": "42.00949"}, {"rating": "10", "name": "Young Magnet High School", "zipcode": "60607", "longitude": "-87.66402", "grades": "7-12", "latitude": "41.878292"}, {"rating": "10", "name": "Edgebrook Elementary School", "zipcode": "60646", "longitude": "-87.76105", "grades": "K-8", "latitude": "41.99943"}, {"rating": "10", "name": "Franklin Elementary Fine Arts Center", "zipcode": "60610", "longitude": "-87.636", "grades": "K-8", "latitude": "41.906425"}, {"rating": "10", "name": "Hawthorne Elementary Scholastic Academy", "zipcode": "60657", "longitude": "-87.65758", "grades": "K-8", "latitude": "41.942223"}, {"rating": "10", "name": "Keller Elementary Gifted Magnet School", "zipcode": "60655", "longitude": "-87.69691", "grades": "1-8", "latitude": "41.697346"}, {"rating": "10", "name": "Jackson A Elementary Language Academy", "zipcode": "60607", "longitude": "-87.6609", "grades": "K-8", "latitude": "41.87477"}, {"rating": "10", "name": "Poe Elementary Classical School", "zipcode": "60628", "longitude": "-87.60631", "grades": "K-6", "latitude": "41.702557"}, {"rating": "10", "name": "Lasalle Elementary Language Academy", "zipcode": "60614", "longitude": "-87.637794", "grades": "K-8", "latitude": "41.913647"}, {"rating": "10", "name": "Lincoln Elementary School", "zipcode": "60614", "longitude": "-87.64426", "grades": "K-8", "latitude": "41.92447"}, {"rating": "10", "name": "Lane Technical High School", "zipcode": "60618", "longitude": "-87.69094", "grades": "9-12", "latitude": "41.945534"}, {"rating": "10", "name": "Mcdade Elementary Classical School", "zipcode": "60619", "longitude": "-87.61908", "grades": "K-6", "latitude": "41.734512"}, {"rating": "10", "name": "Jones College Prep High School", "zipcode": "60605", "longitude": "-87.62798", "grades": "9-12", "latitude": "41.872936"}, {"rating": "10", "name": "Norwood Park Elementary School", "zipcode": "60631", "longitude": "-87.802574", "grades": "PK-8", "latitude": "41.98921"}, {"rating": "10", "name": "Oriole Park Elementary School", "zipcode": "60656", "longitude": "-87.81229", "grades": "PK-8", "latitude": "41.978474"}, {"rating": "10", "name": "Sauganash Elementary School", "zipcode": "60646", "longitude": "-87.7463", "grades": "K-8", "latitude": "41.9913"}, {"rating": "10", "name": "Sheridan Elementary Math & Science Academy", "zipcode": "60616", "longitude": "-87.64123", "grades": "K-8", "latitude": "41.844196"}, {"rating": "10", "name": "Skinner Elementary School", "zipcode": "60607", "longitude": "-87.65948", "grades": "PK-8", "latitude": "41.880856"}, {"rating": "10", "name": "Edison Elementary Regional Gifted Center", "zipcode": "60625", "longitude": "-87.80122", "grades": "K-8", "latitude": "41.97102"}, {"rating": "10", "name": "Lenart Elementary Regional Gifted Center", "zipcode": "60620", "longitude": "-87.62765", "grades": "PK-8", "latitude": "41.746628"}, {"rating": "10", "name": "Northside College Preparatory High School", "zipcode": "60625", "longitude": "-87.70793", "grades": "9-12", "latitude": "41.98135"}, {"rating": "10", "name": "Payton College Preparatory High School", "zipcode": "60610", "longitude": "-87.63523", "grades": "9-12", "latitude": "41.90173"}, {"rating": "10", "name": "Devry Advantage Academy High School", "zipcode": "60618", "longitude": "-87.69112", "grades": "11-12", "latitude": "41.94104"}, {"rating": "10", "name": "Disney Ii Elementary School", "zipcode": "60641", "longitude": "-87.73066", "grades": "PK-10", "latitude": "41.95029"}, {"rating": "10", "name": "Skinner North Elementary School", "zipcode": "60610", "longitude": "-87.64522", "grades": "K-6", "latitude": "41.9053"}, {"rating": "10", "name": "Stem Magnet Academy Elementary", "zipcode": "60607", "longitude": "-87.66437", "grades": "K-4", "latitude": "41.868492"}, {"rating": "9", "name": "Benjamin Middle School", "zipcode": "60185", "longitude": "-88.17165", "grades": "5-8", "latitude": "41.91305"}, {"rating": "9", "name": "Audubon Elementary School", "zipcode": "60618", "longitude": "-87.68131", "grades": "PK-8", "latitude": "41.945393"}, {"rating": "9", "name": "Beaubien Elementary School", "zipcode": "60630", "longitude": "-87.75691", "grades": "PK-8", "latitude": "41.971973"}, {"rating": "9", "name": "Brennemann Elementary School", "zipcode": "60613", "longitude": "-87.64944", "grades": "PK-8", "latitude": "41.960163"}, {"rating": "9", "name": "Cassell Elementary School", "zipcode": "60655", "longitude": "-87.703735", "grades": "K-8", "latitude": "41.687466"}, {"rating": "9", "name": "Chappell Elementary School", "zipcode": "60625", "longitude": "-87.683136", "grades": "PK-8", "latitude": "41.97537"}, {"rating": "9", "name": "Columbus Elementary School", "zipcode": "60622", "longitude": "-87.68152", "grades": "PK-8", "latitude": "41.899643"}, {"rating": "9", "name": "Walt Disney Magnet School", "zipcode": "60613", "longitude": "-87.646416", "grades": "PK-8", "latitude": "41.957123"}, {"rating": "9", "name": "Dore Elementary School", "zipcode": "60638", "longitude": "-87.78772", "grades": "PK-8", "latitude": "41.780746"}, {"rating": "9", "name": "Ebinger Elementary School", "zipcode": "60631", "longitude": "-87.810776", "grades": "PK-8", "latitude": "42.004646"}, {"rating": "9", "name": "Agassiz Elementary School", "zipcode": "60657", "longitude": "-87.65605", "grades": "PK-8", "latitude": "41.933945"}, {"rating": "9", "name": "Alcott College Prep", "zipcode": "60614", "longitude": "-87.64647", "grades": "PK-9", "latitude": "41.929947"}, {"rating": "9", "name": "Gregory Math & Sci Elementary Academy", "zipcode": "60624", "longitude": "-87.71841", "grades": "PK-8", "latitude": "41.87042"}, {"rating": "9", "name": "Healy Elementary School", "zipcode": "60616", "longitude": "-87.64109", "grades": "PK-8", "latitude": "41.839478"}, {"rating": "9", "name": "Wildwood Elementary School", "zipcode": "60646", "longitude": "-87.77873", "grades": "K-8", "latitude": "42.007324"}, {"rating": "9", "name": "Courtenay Elementary Language Arts Center", "zipcode": "60613", "longitude": "-87.67195", "grades": "PK-8", "latitude": "41.95808"}, {"rating": "9", "name": "Mount Greenwood Elementary School", "zipcode": "60655", "longitude": "-87.70537", "grades": "PK-8", "latitude": "41.696053"}, {"rating": "9", "name": "Nettelhorst Elementary School", "zipcode": "60657", "longitude": "-87.64471", "grades": "PK-8", "latitude": "41.941418"}, {"rating": "9", "name": "Newberry Elementary Math & Science Academy", "zipcode": "60614", "longitude": "-87.646645", "grades": "K-8", "latitude": "41.91413"}, {"rating": "9", "name": "Ogden Elementary School", "zipcode": "60610", "longitude": "-87.62956", "grades": "PK-6", "latitude": "41.90025"}, {"rating": "9", "name": "Owen Elementary Scholastic Academy", "zipcode": "60652", "longitude": "-87.70532", "grades": "K-8", "latitude": "41.742947"}, {"rating": "9", "name": "Prussing Elementary School", "zipcode": "60630", "longitude": "-87.77268", "grades": "PK-8", "latitude": "41.965565"}, {"rating": "9", "name": "Rogers Elementary School", "zipcode": "60645", "longitude": "-87.69678", "grades": "PK-8", "latitude": "42.015255"}, {"rating": "9", "name": "Solomon Elementary School", "zipcode": "60659", "longitude": "-87.72443", "grades": "PK-8", "latitude": "41.994255"}, {"rating": "9", "name": "Stone Elementary Scholastic Academy", "zipcode": "60659", "longitude": "-87.68457", "grades": "K-8", "latitude": "41.995495"}, {"rating": "9", "name": "Sutherland Elementary School", "zipcode": "60643", "longitude": "-87.67631", "grades": "K-8", "latitude": "41.71102"}, {"rating": "9", "name": "Thorp O A Elementary Scholastic Academy", "zipcode": "60634", "longitude": "-87.777115", "grades": "K-8", "latitude": "41.94839"}, {"rating": "9", "name": "Ward  J Elementary School", "zipcode": "60616", "longitude": "-87.63514", "grades": "PK-8", "latitude": "41.843525"}, {"rating": "9", "name": "Webster Elementary School", "zipcode": "60624", "longitude": "-87.72692", "grades": "PK-8", "latitude": "41.86972"}, {"rating": "9", "name": "Brooks College Prep Academy High School", "zipcode": "60628", "longitude": "-87.61588", "grades": "9-12", "latitude": "41.69405"}, {"rating": "9", "name": "South Loop Elementary School", "zipcode": "60605", "longitude": "-87.62896", "grades": "PK-8", "latitude": "41.86638"}, {"rating": "9", "name": "Galileo Elementary Math & Sci Schol Acd", "zipcode": "60607", "longitude": "-87.65336", "grades": "PK-8", "latitude": "41.871628"}, {"rating": "9", "name": "Norton Creek Elementary School", "zipcode": "60185", "longitude": "-88.24644", "grades": "PK-5", "latitude": "41.931683"}, {"rating": "9", "name": "Edison Park Elementary School", "zipcode": "60631", "longitude": "-87.81374", "grades": "PK-8", "latitude": "41.99354"}, {"rating": "8", "name": "Bridge Elementary School", "zipcode": "60634", "longitude": "-87.79893", "grades": "PK-8", "latitude": "41.949684"}, {"rating": "8", "name": "Turner-Drew Elementary Language Academy", "zipcode": "60620", "longitude": "-87.630486", "grades": "K-8", "latitude": "41.725555"}, {"rating": "8", "name": "Burnham Elementary Inclusive Academy", "zipcode": "60617", "longitude": "-87.57762", "grades": "K-8", "latitude": "41.720303"}, {"rating": "8", "name": "Dever Elementary School", "zipcode": "60634", "longitude": "-87.81352", "grades": "PK-8", "latitude": "41.942543"}, {"rating": "8", "name": "Dixon Elementary School", "zipcode": "60619", "longitude": "-87.610466", "grades": "PK-8", "latitude": "41.743427"}, {"rating": "8", "name": "Faraday Elementary School", "zipcode": "60624", "longitude": "-87.707985", "grades": "K-8", "latitude": "41.879852"}, {"rating": "8", "name": "Farnsworth Elementary School", "zipcode": "60630", "longitude": "-87.766235", "grades": "PK-8", "latitude": "41.979916"}, {"rating": "8", "name": "Garvy  J Elementary School", "zipcode": "60656", "longitude": "-87.79607", "grades": "K-8", "latitude": "41.975914"}, {"rating": "8", "name": "Goethe Elementary School", "zipcode": "60647", "longitude": "-87.69299", "grades": "PK-8", "latitude": "41.922905"}, {"rating": "8", "name": "Goudy Elementary School", "zipcode": "60640", "longitude": "-87.659515", "grades": "PK-8", "latitude": "41.97604"}, {"rating": "8", "name": "Greeley Elementary School", "zipcode": "60613", "longitude": "-87.650635", "grades": "PK-8", "latitude": "41.952965"}, {"rating": "8", "name": "Grissom Elementary School", "zipcode": "60633", "longitude": "-87.55351", "grades": "PK-8", "latitude": "41.66239"}, {"rating": "8", "name": "Haines Elementary School", "zipcode": "60616", "longitude": "-87.63402", "grades": "PK-8", "latitude": "41.849792"}, {"rating": "8", "name": "Hayt Elementary School", "zipcode": "60660", "longitude": "-87.66851", "grades": "PK-8", "latitude": "41.99463"},