{"new_york": [{"rating": "10", "name": "Beacon High School", "zipcode": "10036", "longitude": "-73.99573", "grades": "9-12", "latitude": "40.76141"}, {"rating": "10", "name": "Ps 290 Manhattan New School", "zipcode": "10028", "longitude": "-73.95281", "grades": "K-5", "latitude": "40.77514"}, {"rating": "10", "name": "Ps 3 Charrette School", "zipcode": "10014", "longitude": "-74.00594", "grades": "PK-5", "latitude": "40.73263"}, {"rating": "10", "name": "Ps 6 Lillie D Blake", "zipcode": "10028", "longitude": "-73.96071", "grades": "K-5", "latitude": "40.777676"}, {"rating": "10", "name": "Ps 9 Sarah Anderson", "zipcode": "10024", "longitude": "-73.97387", "grades": "PK-5", "latitude": "40.785103"}, {"rating": "10", "name": "P.S. 40 Augustus St.-Gaudens", "zipcode": "10003", "longitude": "-73.9817", "grades": "PK-5", "latitude": "40.73512"}, {"rating": "10", "name": "P.S. 41 Greenwich Village", "zipcode": "10011", "longitude": "-73.999115", "grades": "PK-5", "latitude": "40.735527"}, {"rating": "10", "name": "Ps 59 Beekman Hill International", "zipcode": "10019", "longitude": "-73.98286", "grades": "K-5", "latitude": "40.76585"}, {"rating": "10", "name": "Ps 87 William Sherman", "zipcode": "10024", "longitude": "-73.97801", "grades": "PK-5", "latitude": "40.781788"}, {"rating": "10", "name": "Ps 124 Yung Wing", "zipcode": "10002", "longitude": "-73.99553", "grades": "PK-5", "latitude": "40.714424"}, {"rating": "10", "name": "Ps 130 Hernando De Soto", "zipcode": "10013", "longitude": "-73.99826", "grades": "PK-5", "latitude": "40.71882"}, {"rating": "10", "name": "Ps 150", "zipcode": "10013", "longitude": "-74.01094", "grades": "PK-5", "latitude": "40.718082"}, {"rating": "10", "name": "P.S. 158 Baylard Taylor", "zipcode": "10075", "longitude": "-73.95073", "grades": "PK-5", "latitude": "40.770203"}, {"rating": "10", "name": "Ps 166 The Richard Rogers School Of The Arts And S", "zipcode": "10024", "longitude": "-73.97246", "grades": "K-5", "latitude": "40.788883"}, {"rating": "10", "name": "Jhs 167 Robert F Wagner", "zipcode": "10021", "longitude": "-73.95794", "grades": "6-8", "latitude": "40.771828"}, {"rating": "10", "name": "Ps 183 Robert L Stevenson", "zipcode": "10065", "longitude": "-73.957756", "grades": "K-5", "latitude": "40.763763"}, {"rating": "10", "name": "Ps 199 Jessie Isador Straus", "zipcode": "10023", "longitude": "-73.98473", "grades": "K-5", "latitude": "40.777767"}, {"rating": "10", "name": "Stuyvesant High School", "zipcode": "10282", "longitude": "-74.01391", "grades": "9-12", "latitude": "40.717945"}, {"rating": "10", "name": "New Explorations Into Science, Tech and Math High School", "zipcode": "10002", "longitude": "-73.97924", "grades": "K-12", "latitude": "40.7195"}, {"rating": "10", "name": "Ps 89", "zipcode": "10282", "longitude": "-74.013626", "grades": "PK-5", "latitude": "40.716866"}, {"rating": "10", "name": "Is 289", "zipcode": "10282", "longitude": "-74.013626", "grades": "6-8", "latitude": "40.716866"}, {"rating": "10", "name": "Ps 234 Independence School", "zipcode": "10007", "longitude": "-74.011765", "grades": "K-5", "latitude": "40.716095"}, {"rating": "10", "name": "Ps 184 Shuang Wen", "zipcode": "10002", "longitude": "-73.98549", "grades": "PK-8", "latitude": "40.711437"}, {"rating": "10", "name": "Ps 77 Lower Lab School", "zipcode": "10128", "longitude": "-73.95003", "grades": "K-5", "latitude": "40.785015"}, {"rating": "10", "name": "Ms 243 Center School", "zipcode": "10024", "longitude": "-73.97387", "grades": "5-8", "latitude": "40.785103"}, {"rating": "10", "name": "Ms 260 Clinton School Writers And Artists", "zipcode": "10003", "longitude": "-73.992355", "grades": "6-8", "latitude": "40.736115"}, {"rating": "10", "name": "Ms 255 Salk School Of Science", "zipcode": "10003", "longitude": "-73.9817", "grades": "6-8", "latitude": "40.73512"}, {"rating": "10", "name": "East Side Middle School", "zipcode": "10024", "longitude": "-73.97661", "grades": "6-8", "latitude": "40.79255"}, {"rating": "10", "name": "Ballet Tech Nyc Ps For Dance", "zipcode": "10003", "longitude": "-73.98949", "grades": "4-8", "latitude": "40.73854"}, {"rating": "10", "name": "Nyc Lab Ms For Collaborative Studies", "zipcode": "10011", "longitude": "-74.00237", "grades": "6-8", "latitude": "40.742573"}, {"rating": "10", "name": "The Anderson School", "zipcode": "10024", "longitude": "-73.97809", "grades": "K-8", "latitude": "40.781082"}, {"rating": "10", "name": "Success Academy Harlem 1", "zipcode": "10026", "longitude": "-73.94826", "grades": "K-9", "latitude": "40.803013"}, {"rating": "10", "name": "High School Math Science And Engineering At Ccny", "zipcode": "10031", "longitude": "-73.948845", "grades": "9-12", "latitude": "40.821396"}, {"rating": "10", "name": "Spruce Street School", "zipcode": "10038", "longitude": "-74.00536", "grades": "PK-5", "latitude": "40.711056"}, {"rating": "10", "name": "Harlem Success Academy Charter School 4", "zipcode": "10026", "longitude": "-73.95529", "grades": "K-7", "latitude": "40.80165"}, {"rating": "10", "name": "Harlem Success Academy Charter School 3", "zipcode": "10029", "longitude": "-73.94455", "grades": "K-7", "latitude": "40.796047"}, {"rating": "10", "name": "Harlem Success Academy Charter School 2", "zipcode": "10035", "longitude": "-73.93533", "grades": "K-6", "latitude": "40.805717"}, {"rating": "10", "name": "Ps 452", "zipcode": "10024", "longitude": "-73.97809", "grades": "K-4", "latitude": "40.781082"}, {"rating": "10", "name": "Harlem Success Academy Charter School 5", "zipcode": "10030", "longitude": "-73.94446", "grades": "K-5", "latitude": "40.82019"}, {"rating": "10", "name": "Success Academy Upper West", "zipcode": "10024", "longitude": "-73.974075", "grades": "K-4", "latitude": "40.785954"}, {"rating": "10", "name": "Neighborhood Charter School of Harlem", "zipcode": "10027", "longitude": "-73.94738", "grades": "K-3", "latitude": "40.80758"}, {"rating": "9", "name": "Institute For Collaborative Education", "zipcode": "10003", "longitude": "-73.982574", "grades": "6-12", "latitude": "40.732677"}, {"rating": "9", "name": "Ps 11 William T Harris", "zipcode": "10011", "longitude": "-74.00074", "grades": "PK-5", "latitude": "40.74455"}, {"rating": "9", "name": "Ps 33 Chelsea Prep", "zipcode": "10001", "longitude": "-74.000244", "grades": "PK-5", "latitude": "40.748943"}, {"rating": "9", "name": "Ps 42 Benjamin Altman", "zipcode": "10002", "longitude": "-73.990845", "grades": "PK-5", "latitude": "40.716137"}, {"rating": "9", "name": "Jhs 54 Booker T Washington", "zipcode": "10025", "longitude": "-73.9628", "grades": "6-8", "latitude": "40.80051"}, {"rating": "9", "name": "Ps 116 Mary Lindley Murray", "zipcode": "10016", "longitude": "-73.97763", "grades": "PK-5", "latitude": "40.744427"}, {"rating": "9", "name": "Ps 163 Alfred E Smith", "zipcode": "10025", "longitude": "-73.96854", "grades": "PK-5", "latitude": "40.794945"}, {"rating": "9", "name": "Ps 171 Patrick Henry", "zipcode": "10029", "longitude": "-73.95145", "grades": "PK-8", "latitude": "40.792305"}, {"rating": "9", "name": "School Of The Future High School", "zipcode": "10010", "longitude": "-73.98535", "grades": "6-12", "latitude": "40.739094"}, {"rating": "9", "name": "Jhs 104 Simon Baruch", "zipcode": "10010", "longitude": "-73.98042", "grades": "6-8", "latitude": "40.735893"}, {"rating": "9", "name": "The Mott Hall School", "zipcode": "10027", "longitude": "-73.952675", "grades": "6-8", "latitude": "40.81582"}, {"rating": "9", "name": "Ps 333 Manhattan School For Children", "zipcode": "10025", "longitude": "-73.97077", "grades": "K-8", "latitude": "40.791683"}, {"rating": "9", "name": "Ps 212 Midtown West", "zipcode": "10036", "longitude": "-73.98867", "grades": "PK-5", "latitude": "40.76133"}, {"rating": "9", "name": "Eleanor Roosevelt High School", "zipcode": "10021", "longitude": "-73.95327", "grades": "9-12", "latitude": "40.770283"}, {"rating": "9", "name": "Millennium High School", "zipcode": "10004", "longitude": "-74.01123", "grades": "9-12", "latitude": "40.704685"}, {"rating": "9", "name": "The East Village Community School", "zipcode": "10009", "longitude": "-73.97838", "grades": "PK-5", "latitude": "40.727726"}, {"rating": "9", "name": "Tompkins Square Middle School", "zipcode": "10009", "longitude": "-73.981606", "grades": "6-8", "latitude": "40.723747"}, {"rating": "9", "name": "Bard High School Early College", "zipcode": "10002", "longitude": "-73.976074", "grades": "9-12", "latitude": "40.718094"}, {"rating": "9", "name": "Baruch College Campus High School", "zipcode": "10010", "longitude": "-73.98585", "grades": "9-12", "latitude": "40.741875"}, {"rating": "9", "name": "High School For Dual Language And Asian Studies", "zipcode": "10002", "longitude": "-73.98932", "grades": "9-12", "latitude": "40.717316"}, {"rating": "9", "name": "Mott Hall Ii", "zipcode": "10025", "longitude": "-73.96595", "grades": "6-8", "latitude": "40.802677"}, {"rating": "9", "name": "Tag Young Scholars", "zipcode": "10029", "longitude": "-73.942116", "grades": "K-8", "latitude": "40.79259"}, {"rating": "9", "name": "Columbia Secondary School", "zipcode": "10027", "longitude": "-73.95585", "grades": "6-12", "latitude": "40.81064"}, {"rating": "9", "name": "Battery Park City School", "zipcode": "10011", "longitude": "-74.01765", "grades": "K-8", "latitude": "40.706738"}, {"rating": "9", "name": "Special Music School", "zipcode": "10023", "longitude": "-73.982994", "grades": "K-10", "latitude": "40.775223"}, {"rating": "9", "name": "East Side Elementary School, PS 267", "zipcode": "10065", "longitude": "-73.96387", "grades": "PK-4", "latitude": "40.763878"}, {"rating": "8", "name": "Manhattan Village Academy", "zipcode": "10010", "longitude": "-73.992256", "grades": "9-12", "latitude": "40.741962"}, {"rating": "8", "name": "East Side Community School", "zipcode": "10009", "longitude": "-73.982475", "grades": "6-12", "latitude": "40.729153"}, {"rating": "8", "name": "Professional Performing Arts High School", "zipcode": "10036", "longitude": "-73.98867", "grades": "6-12", "latitude": "40.76133"}, {"rating": "8", "name": "Ps 2 Meyer London", "zipcode": "10002", "longitude": "-73.991554", "grades": "PK-5", "latitude": "40.712944"}, {"rating": "8", "name": "Ps 84 Lilian Weber", "zipcode": "10025", "longitude": "-73.9681", "grades": "PK-5", "latitude": "40.789383"}, {"rating": "8", "name": "Ps 110 Florence Nightingale", "zipcode": "10002", "longitude": "-73.97993", "grades": "PK-5", "latitude": "40.715294"}, {"rating": "8", "name": "Ps 126 Jacob August Riis", "zipcode": "10038", "longitude": "-73.997", "grades": "PK-8", "latitude": "40.71045"}, {"rating": "8", "name": "Ps Is 187 Hudson Cliffs", "zipcode": "10040", "longitude": "-73.937294", "grades": "K-8", "latitude": "40.856136"}, {"rating": "8", "name": "Nyc Museum School", "zipcode": "10011", "longitude": "-74.00237", "grades": "9-12", "latitude": "40.742573"}, {"rating": "8", "name": "Ms 131", "zipcode": "10002", "longitude": "-73.99355", "grades": "6-8", "latitude": "40.716213"}, {"rating": "8", "name": "Fiorello H Laguardia High School of Music, Art and Performing Arts", "zipcode": "10023", "longitude": "-73.985916", "grades": "9-12", "latitude": "40.774162"}, {"rating": "8", "name": "Manhattan Center for Science & Mathematics", "zipcode": "10029", "longitude": "-73.93269", "grades": "9-12", "latitude": "40.794167"}, {"rating": "8", "name": "Ms 245 The Computer School", "zipcode": "10024", "longitude": "-73.97809", "grades": "6-8", "latitude": "40.781082"}, {"rating": "8", "name": "Harbor Science and Arts Charter School", "zipcode": "10029", "longitude": "-73.94453", "grades": "K-8", "latitude": "40.795536"}, {"rating": "8", "name": "Ms 224 Manhattan East School For Arts And Academy", "zipcode": "10029", "longitude": "-73.94201", "grades": "6-8", "latitude": "40.785027"}, {"rating": "8", "name": "Harvey Milk High School", "zipcode": "10003", "longitude": "-73.99223", "grades": "9-12", "latitude": "40.729702"}, {"rating": "8", "name": "Manhattan/Hunter Science High School", "zipcode": "10023", "longitude": "-73.98562", "grades": "9-12", "latitude": "40.7749"}, {"rating": "8", "name": "The Children S Workshop School", "zipcode": "10009", "longitude": "-73.97838", "grades": "PK-5", "latitude": "40.727726"}, {"rating": "8", "name": "Lower Manhattan Community Middle School", "zipcode": "10004", "longitude": "-74.012886", "grades": "6-8", "latitude": "40.70544"}, {"rating": "8", "name": "Central Park East Ii", "zipcode": "10029", "longitude": "-73.95145", "grades": "PK-5", "latitude": "40.792305"}, {"rating": "8", "name": "Muscota", "zipcode": "10034", "longitude": "-73.92382", "grades": "K-5", "latitude": "40.866524"}, {"rating": "8", "name": "Yorkville Community School", "zipcode": "10128", "longitude": "-73.94732", "grades": "K-5", "latitude": "40.777924"}, {"rating": "7", "name": "Talent Unlimited High School", "zipcode": "10065", "longitude": "-73.959694", "grades": "9-12", "latitude": "40.76537"}, {"rating": "7", "name": "Ps 7 Louis F Simeone", "zipcode": "11373", "longitude": "-73.882576", "grades": "K-3", "latitude": "40.73975"}, {"rating": "7", "name": "Ps 1 Alfred E Smith", "zipcode": "10038", "longitude": "-73.997475", "grades": "PK-5", "latitude": "40.712563"}, {"rating": "7", "name": "Ps 19 Asher Levy", "zipcode": "10003", "longitude": "-73.98423", "grades": "PK-5", "latitude": "40.729893"}, {"rating": "7", "name": "Ps 125 Ralph Bunche", "zipcode": "10027", "longitude": "-73.95585", "grades": "PK-5", "latitude": "40.81064"}, {"rating": "7", "name": "Nyc Lab High School For Collaborative Studies", "zipcode": "10011", "longitude": "-74.00237", "grades": "9-12", "latitude": "40.742573"}, {"rating": "7", "name": "Young Women's Leadership School", "zipcode": "10029", "longitude": "-73.94717", "grades": "6-12", "latitude": "40.792934"}, {"rating": "7", "name": "Ella Baker School", "zipcode": "10065", "longitude": "-73.959694", "grades": "PK-8", "latitude": "40.76537"}, {"rating": "7", "name": "Ps Is 217 Roosevelt Island", "zipcode": "10044", "longitude": "-73.94847", "grades": "PK-8", "latitude": "40.76397"}, {"rating": "7", "name": "New York Mills Elementary School", "zipcode": "13417", "longitude": "-75.291374", "grades": "K-6", "latitude": "43.092567"}, {"rating": "7", "name": "Amber Charter School", "zipcode": "10029", "longitude": "-73.94391", "grades": "K-5", "latitude": "40.790928"}, {"rating": "7", "name": "Ps 83 Luis Munoz Rivera", "zipcode": "10029", "longitude": "-73.94181", "grades": "PK-5", "latitude": "40.79313"}, {"rating": "7", "name": "City College Academy Of The Arts", "zipcode": "10040", "longitude": "-73.93007", "grades": "6-12", "latitude": "40.86082"}, {"rating": "7", "name": "Earth School", "zipcode": "10009", "longitude": "-73.981606", "grades": "PK-5", "latitude": "40.723747"}, {"rating": "7", "name": "Girls Preparatory Charter School of New York", "zipcode": "10002", "longitude": "-73.97738", "grades": "K-8", "latitude": "40.71987"}, {"rating": "7", "name": "Harlem Children S Zone Promise Academy Ii Charter", "zipcode": "10035", "longitude": "-73.94102", "grades": "K-10", "latitude": "40.806206"}, {"rating": "7", "name": "Paula Hedbavny School", "zipcode": "10034", "longitude": "-73.91249", "grades": "K-8", "latitude": "40.8716"}, {"rating": "7", "name": "Democracy Preparatory Charter School", "zipcode": "10030", "longitude": "-73.94581", "grades": "6-12", "latitude": "40.81495"}, {"rating": "7", "name": "Lower East Side Preparatory High School", "zipcode": "10002", "longitude": "-73.985954", "grades": "10-12", "latitude": "40.720184"}, {"rating": "7", "name": "Nyc Ischool", "zipcode": "10013", "longitude": "-74.005066", "grades": "9-12", "latitude": "40.724636"}, {"rating": "7", "name": "Emma Lazarus High School", "zipcode": "10002", "longitude": "-73.99355", "grades": "9-12", "latitude": "40.716213"}, {"rating": "7", "name": "Frank Mccourt High School", "zipcode": "10024", "longitude": "-73.974075", "grades": "9-12", "latitude": "40.785954"}, {"rating": "7", "name": "Democracy Prep Endurance Charter School", "zipcode": "10027", "longitude": "-73.94886", "grades": "6-8", "latitude": "40.810555"}, {"rating": "6", "name": "Central Park East High School", "zipcode": "10029", "longitude": "-73.94857", "grades": "9-12", "latitude": "40.793747"}, {"rating": "6", "name": "High School for Health Professions & Human Services", "zipcode": "10003", "longitude": "-73.982574", "grades": "9-12", "latitude": "40.732677"}, {"rating": "6", "name": "Chelsea Career And Technical Education High School", "zipcode": "10013", "longitude": "-74.005066", "grades": "9-12", "latitude": "40.724636"}, {"rating": "6", "name": "P.S. 51 Elias Howe", "zipcode": "10036", "longitude": "-73.99559", "grades": "PK-5", "latitude": "40.761593"}, {"rating": "6", "name": "Ps 75 Emily Dickinson", "zipcode": "10025", "longitude": "-73.97399", "grades": "K-5", "latitude": "40.79511"}, {"rating": "6", "name": "Ps 198 Isador E Ida Straus", "zipcode": "10128", "longitude": "-73.95003", "grades": "PK-5", "latitude": "40.785015"}, {"rating": "6", "name": "Professor Juan Bosch Public School", "zipcode": "10040", "longitude": "-73.92821", "grades": "K-4", "latitude": "40.85934"}, {"rating": "6", "name": "Manhattan Comprehensive Night And Day High School", "zipcode": "10003", "longitude": "-73.98432", "grades": "10-12", "latitude": "40.732674"}, {"rating": "6", "name": "New York Mills Junior Senior High School", "zipcode": "13417", "longitude": "-75.291374", "grades": "7-12", "latitude": "43.092567"}, {"rating": "6", "name": "Ms 247 Dual Language Middle School", "zipcode": "10025", "longitude": "-73.9681", "grades": "6-8", "latitude": "40.789383"}, {"rating": "6", "name": "Urban Academy Laboratory High School", "zipcode": "10065", "longitude": "-73.959694", "grades": "9-12", "latitude": "40.76537"}, {"rating": "6", "name": "KIPP S.T.A.R. Charter School", "zipcode": "10027", "longitude": "-73.95634", "grades": "K, 5-12", "latitude": "40.810856"}, {"rating": "6", "name": "Manhattan Charter School", "zipcode": "10002", "longitude": "-73.984085", "grades": "K-5", "latitude": "40.71823"}, {"rating": "6", "name": "Harlem Children's Zone Promise Academy Charter School", "zipcode": "10027", "longitude": "-73.94816", "grades": "K-11", "latitude": "40.812588"}, {"rating": "6", "name": "Kipp Infinity Charter School", "zipcode": "10027", "longitude": "-73.95724", "grades": "K-12", "latitude": "40.819763"}, {"rating": "6", "name": "Democracy Prep Harlem Charter School", "zipcode": "10030", "longitude": "-73.94512", "grades": "K-1, 6-10", "latitude": "40.81441"}, {"rating": "6", "name": "KIPP NYC WASHINGTON HEIGHTS CHARTER", "zipcode": "10032", "longitude": "-73.935776", "grades": "K-3, 5-7", "latitude": "40.83941"}, {"rating": "6", "name": "Manhattan Charter School II", "zipcode": "10002", "longitude": "-73.98607", "grades": "K-3", "latitude": "40.713345"}, {"rating": "6", "name": "Great Oaks Charter School", "zipcode": "10002", "longitude": "-73.99652", "grades": "6", "latitude": "40.71154"}, {"rating": "6", "name": "E Harlem Scholars Acad Charter School", "zipcode": "10029", "longitude": "-73.94857", "grades": "K-4", "latitude": "40.793747"}, {"rating": "5", "name": "Jefferson Central School", "zipcode": "10014", "longitude": "-74.00932", "grades": "PK-12", "latitude": "40.740013"}, {"rating": "5", "name": "Repertory Company High School for Theatre Arts", "zipcode": "10036", "longitude": "-73.98445", "grades": "9-12", "latitude": "40.756115"}, {"rating": "5", "name": "The High School of Fashion Industries", "zipcode": "10011", "longitude": "-73.99639", "grades": "9-12", "latitude": "40.745705"}, {"rating": "5", "name": "Ps 7 Samuel Stern", "zipcode": "10035", "longitude": "-73.93932", "grades": "PK-8", "latitude": "40.800632"}, {"rating": "5", "name": "Ps 20 Anna Silver", "zipcode": "10002", "longitude": "-73.98631", "grades": "PK-5", "latitude": "40.721275"}, {"rating": "5", "name": "Ps 34 Franklin D Roosevelt", "zipcode": "10009", "longitude": "-73.975044", "grades": "PK-8", "latitude": "40.726147"}, {"rating": "5", "name": "James Weldon Johnson School", "zipcode": "10029", "longitude": "-73.941284", "grades": "PK-8", "latitude": "40.797157"}, {"rating": "5", "name": "S.T.A.R. Academy - PS 63", "zipcode": "10009", "longitude": "-73.985916", "grades": "PK-5", "latitude": "40.723904"}, {"rating": "5", "name": "Humanities Preparatory Academy", "zipcode": "10011", "longitude": "-74.00255", "grades": "9-12", "latitude": "40.743366"}, {"rating": "5", "name": "Harlem Day Charter School", "zipcode": "10035", "longitude": "-73.93508", "grades": "K-8", "latitude": "40.801376"}, {"rating": "5", "name": "Ms 250 West Side Collaborative Middle School", "zipcode": "10025", "longitude": "-73.97399", "grades": "6-8", "latitude": "40.79511"}, {"rating": "5", "name": "Sisulu Walker Charter School Of Harlem", "zipcode": "10026", "longitude": "-73.951355", "grades": "K-5", "latitude": "40.8021"}, {"rating": "5", "name": "Marble Hill High School of International Studies", "zipcode": "10463", "longitude": "-73.91333", "grades": "9-12", "latitude": "40.8776"}, {"rating": "5", "name": "Thurgood Marshall Academy Lower School", "zipcode": "10039", "longitude": "-73.93794", "grades": "K-5", "latitude": "40.825966"}, {"rating": "5", "name": "Neighborhood School", "zipcode": "10009", "longitude": "-73.98636", "grades": "PK-5", "latitude": "40.724403"}, {"rating": "5", "name": "Essex Street Academy", "zipcode": "10002", "longitude": "-73.98932", "grades": "9-12", "latitude": "40.717316"}, {"rating": "5", "name": "Pace High School", "zipcode": "10002", "longitude": "-73.99355", "grades": "9-12", "latitude": "40.716213"}, {"rating": "5", "name": "Future Leaders Institute Charter School", "zipcode": "10027", "longitude": "-73.94833", "grades": "K-8", "latitude": "40.806175"}, {"rating": "5", "name": "Harlem Village Academy Leadership Middle School", "zipcode": "10035", "longitude": "-73.93395", "grades": "K-2, 5-12", "latitude": "40.799316"}, {"rating": "5", "name": "Harlem Village Academy Charter School", "zipcode": "10027", "longitude": "-73.944016", "grades": "K-2, 5-12", "latitude": "40.806557"}, {"rating": "5", "name": "Washington Heights Expeditionary Learning School", "zipcode": "10033", "longitude": "-73.93111", "grades": "PK-K, 6-12", "latitude": "40.8491"}, {"rating": "5", "name": "Cascades High School", "zipcode": "10002", "longitude": "-73.99049", "grades": "9-12", "latitude": "40.722412"}, {"rating": "5", "name": "High School 560 City As School", "zipcode": "10014", "longitude": "-74.0061", "grades": "10-12", "latitude": "40.72911"}, {"rating": "5", "name": "Satellite Academy High School", "zipcode": "10001", "longitude": "-73.990555", "grades": "9-12", "latitude": "40.747433"}, {"rating": "5", "name": "Washington Heights Academy", "zipcode": "10034", "longitude": "-73.9216", "grades": "PK-6", "latitude": "40.865574"}, {"rating": "5", "name": "Quest To Learn", "zipcode": "10011", "longitude": "-74.00255", "grades": "6-11", "latitude": "40.743366"}, {"rating": "5", "name": "Global Technology Preparatory", "zipcode": "10035", "longitude": "-73.93932", "grades": "6-8", "latitude": "40.800632"}, {"rating": "5", "name": "Dream Charter School", "zipcode": "10029", "longitude": "-73.94409", "grades": "K-7", "latitude": "40.78834"}, {"rating": "5", "name": "The Equity Project Charter School", "zipcode": "10040", "longitude": "-73.92699", "grades": "5-8", "latitude": "40.855934"}, {"rating": "5", "name": "Harvest Collegiate High School", "zipcode": "10011", "longitude": "-73.995476", "grades": "9-11", "latitude": "40.736588"}, {"rating": "5", "name": "Academy for Software Engineering", "zipcode": "10003", "longitude": "-73.98708", "grades": "9-11", "latitude": "40.735325"}, {"rating": "5", "name": "New York French American Charter School", "zipcode": "10027", "longitude": "-73.95422", "grades": "K-5", "latitude": "40.80754"}, {"rating": "5", "name": "Urban Assembly-Emergency Management", "zipcode": "10038", "longitude": "-74.00132", "grades": "9-10", "latitude": "40.711033"}, {"rating": "4", "name": "Landmark High School", "zipcode": "10011", "longitude": "-74.00255", "grades": "9-12", "latitude": "40.743366"}, {"rating": "4", "name": "Vanguard High School", "zipcode": "10065", "longitude": "-73.959694", "grades": "9-12", "latitude": "40.76537"}, {"rating": "4", "name": "Park East High School", "zipcode": "10029", "longitude": "-73.94417", "grades": "9-12", "latitude": "40.790203"}, {"rating": "4", "name": "High School Of Economics And Finance", "zipcode": "10006", "longitude": "-74.01233", "grades": "9-12", "latitude": "40.70929"}, {"rating": "4", "name": "Frederick Douglass Academy", "zipcode": "10039", "longitude": "-73.93655", "grades": "6-12", "latitude": "40.824398"}, {"rating": "4", "name": "Marta Valle High School", "zipcode": "10002", "longitude": "-73.985954", "grades": "9-12", "latitude": "40.720184"}, {"rating": "4", "name": "Art and Design High School", "zipcode": "10019", "longitude": "-73.98286", "grades": "9-12", "latitude": "40.76585"}, {"rating": "4", "name": "Ps 28 Wright Brothers", "zipcode": "10032", "longitude": "-73.94208", "grades": "PK-5", "latitude": "40.831654"}, {"rating": "4", "name": "The Bilingual Bicultural School", "zipcode": "10029", "longitude": "-73.94181", "grades": "K-5", "latitude": "40.79313"}, {"rating": "4", "name": "Ps 111 Adolph S Ochs", "zipcode": "10019", "longitude": "-73.9896", "grades": "PK-5, 7-8", "latitude": "40.765835"}, {"rating": "4", "name": "Ps 134 Henrietta Szold", "zipcode": "10002", "longitude": "-73.98296", "grades": "PK-5", "latitude": "40.714302"}, {"rating": "4", "name": "Ps 153 Adam Clayton Powell", "zipcode": "10031", "longitude": "-73.94746", "grades": "PK-5", "latitude": "40.826477"}, {"rating": "4", "name": "Ps 173", "zipcode": "10033", "longitude": "-73.939735", "grades": "PK-5", "latitude": "40.84562"}, {"rating": "4", "name": "Ps Is 210 21st Century Academy For Community Lders", "zipcode": "10031", "longitude": "-73.94465", "grades": "PK-8", "latitude": "40.83001"}, {"rating": "4", "name": "A Philip Randolph Campus High School", "zipcode": "10031", "longitude": "-73.95027", "grades": "9-12", "latitude": "40.81817"}, {"rating": "4", "name": "Ps 242 The Young Diplomats Magnet School", "zipcode": "10027", "longitude": "-73.94833", "grades": "PK-5", "latitude": "40.806175"}, {"rating": "4", "name": "Community Action School Ms 258", "zipcode": "10025", "longitude": "-73.97077", "grades": "6-8", "latitude": "40.791683"}, {"rating": "4", "name": "Thurgood Marshall Academy For Learning And Social", "zipcode": "10030", "longitude": "-73.944305", "grades": "6-12", "latitude": "40.815296"}, {"rating": "4", "name": "Manhattan Bridges High School", "zipcode": "10019", "longitude": "-73.99299", "grades": "9-12", "latitude": "40.765594"}, {"rating": "4", "name": "Ps 180 Hugo Newman", "zipcode": "10027", "longitude": "-73.95584", "grades": "PK-8", "latitude": "40.80761"}, {"rating": "4", "name": "Urban Assembly Academy Of Government And Law", "zipcode": "10002", "longitude": "-73.98932", "grades": "9-12", "latitude": "40.717316"}, {"rating": "4", "name": "Lower Manhattan Arts Academy", "zipcode": "10002", "longitude": "-73.98932", "grades": "9-12", "latitude": "40.717316"}, {"rating": "4", "name": "University Neighborhood Middle School", "zipcode": "10002", "longitude": "-73.98607", "grades": "6-8", "latitude": "40.713345"}, {"rating": "4", "name": "High School Of Hospitality Management", "zipcode": "10019", "longitude": "-73.99299", "grades": "9-12", "latitude": "40.765594"}, {"rating": "4", "name": "River East Elementary School", "zipcode": "10035", "longitude": "-73.92998", "grades": "PK-5", "latitude": "40.796906"}, {"rating": "4", "name": "Amistad Dual Language School", "zipcode": "10034", "longitude": "-73.92382", "grades": "K-8", "latitude": "40.866524"}, {"rating": "4", "name": "Ms 324 Patria Mirabal", "zipcode": "10032", "longitude": "-73.935776", "grades": "6-8", "latitude": "40.83941"}, {"rating": "4", "name": "New Heights Academy Charter School", "zipcode": "10031", "longitude": "-73.945404", "grades": "5-12", "latitude": "40.828613"}, {"rating": "4", "name": "Collaborative Academy Of Science Technology And Lang", "zipcode": "10002", "longitude": "-73.98607", "grades": "6-8", "latitude": "40.713345"}, {"rating": "4", "name": "School For Global Leaders", "zipcode": "10002", "longitude": "-73.985954", "grades": "6-8", "latitude": "40.720184"}, {"rating": "4", "name": "Manhattan Business Academy", "zipcode": "10011", "longitude": "-74.00255", "grades": "9-12", "latitude": "40.743366"}, {"rating": "4", "name": "The Global Learning Collaborative", "zipcode": "10024", "longitude": "-73.974075", "grades": "9-12", "latitude": "40.785954"}, {"rating": "4", "name": "Academy of Innovative Technology", "zipcode": "11208", "longitude": "-73.869064", "grades": "9-12", "latitude": "40.693005"}, {"rating": "4", "name": "Urban Assembly New York Harbor School", "zipcode": "10004", "longitude": "-74.01083", "grades": "9-12", "latitude": "40.703037"}, {"rating": "4", "name": "Murray Hill Academy", "zipcode": "10016", "longitude": "-73.981026", "grades": "9-12", "latitude": "40.746433"}], "austin": [{"rating": "10", "name": "Beacon High School", "zipcode": "10036", "longitude": "-73.99573", "grades": "9-12", "latitude": "40.76141"}, {"rating": "10", "name": "Ps 290 Manhattan New School", "zipcode": "10028", "longitude": "-73.95281", "grades": "K-5", "latitude": "40.77514"}, {"rating": "10", "name": "Ps 3 Charrette School", "zipcode": "10014", "longitude": "-74.00594", "grades": "PK-5", "latitude": "40.73263"}, {"rating": "10", "name": "Ps 6 Lillie D Blake", "zipcode": "10028", "longitude": "-73.96071", "grades": "K-5", "latitude": "40.777676"}, {"rating": "10", "name": "Ps 9 Sarah Anderson", "zipcode": "10024", "longitude": "-73.97387", "grades": "PK-5", "latitude": "40.785103"}, {"rating": "10", "name": "P.S. 40 Augustus St.-Gaudens", "zipcode": "10003", "longitude": "-73.9817", "grades": "PK-5", "latitude": "40.73512"}, {"rating": "10", "name": "P.S. 41 Greenwich Village", "zipcode": "10011", "longitude": "-73.999115", "grades": "PK-5", "latitude": "40.735527"}, {"rating": "10", "name": "Ps 59 Beekman Hill International", "zipcode": "10019", "longitude": "-73.98286", "grades": "K-5", "latitude": "40.76585"}, {"rating": "10", "name": "Ps 87 William Sherman", "zipcode": "10024", "longitude": "-73.97801", "grades": "PK-5", "latitude": "40.781788"}, {"rating": "10", "name": "Ps 124 Yung Wing", "zipcode": "10002", "longitude": "-73.99553", "grades": "PK-5", "latitude": "40.714424"}, {"rating": "10", "name": "Ps 130 Hernando De Soto", "zipcode": "10013", "longitude": "-73.99826", "grades": "PK-5", "latitude": "40.71882"}, {"rating": "10", "name": "Ps 150", "zipcode": "10013", "longitude": "-74.01094", "grades": "PK-5", "latitude": "40.718082"}, {"rating": "10", "name": "P.S. 158 Baylard Taylor", "zipcode": "10075", "longitude": "-73.95073", "grades": "PK-5", "latitude": "40.770203"}, {"rating": "10", "name": "Ps 166 The Richard Rogers School Of The Arts And S", "zipcode": "10024", "longitude": "-73.97246", "grades": "K-5", "latitude": "40.788883"}, {"rating": "10", "name": "Jhs 167 Robert F Wagner", "zipcode": "10021", "longitude": "-73.95794", "grades": "6-8", "latitude": "40.771828"}, {"rating": "10", "name": "Ps 183 Robert L Stevenson", "zipcode": "10065", "longitude": "-73.957756", "grades": "K-5", "latitude": "40.763763"}, {"rating": "10", "name": "Ps 199 Jessie Isador Straus", "zipcode": "10023", "longitude": "-73.98473", "grades": "K-5", "latitude": "40.777767"}, {"rating": "10", "name": "Stuyvesant High School", "zipcode": "10282", "longitude": "-74.01391", "grades": "9-12", "latitude": "40.717945"}, {"rating": "10", "name": "New Explorations Into Science, Tech and Math High School", "zipcode": "10002", "longitude": "-73.97924", "grades": "K-12", "latitude": "40.7195"}, {"rating": "10", "name": "Ps 89", "zipcode": "10282", "longitude": "-74.013626", "grades": "PK-5", "latitude": "40.716866"}, {"rating": "10", "name": "Is 289", "zipcode": "10282", "longitude": "-74.013626", "grades": "6-8", "latitude": "40.716866"}, {"rating": "10", "name": "Ps 234 Independence School", "zipcode": "10007", "longitude": "-74.011765", "grades": "K-5", "latitude": "40.716095"}, {"rating": "10", "name": "Ps 184 Shuang Wen", "zipcode": "10002", "longitude": "-73.98549", "grades": "PK-8", "latitude": "40.711437"}, {"rating": "10", "name": "Ps 77 Lower Lab School", "zipcode": "10128", "longitude": "-73.95003", "grades": "K-5", "latitude": "40.785015"}, {"rating": "10", "name": "Ms 243 Center School", "zipcode": "10024", "longitude": "-73.97387", "grades": "5-8", "latitude": "40.785103"}, {"rating": "10", "name": "Ms 260 Clinton School Writers And Artists", "zipcode": "10003", "longitude": "-73.992355", "grades": "6-8", "latitude": "40.736115"}, {"rating": "10", "name": "Ms 255 Salk School Of Science", "zipcode": "10003", "longitude": "-73.9817", "grades": "6-8", "latitude": "40.73512"}, {"rating": "10", "name": "East Side Middle School", "zipcode": "10024", "longitude": "-73.97661", "grades": "6-8", "latitude": "40.79255"}, {"rating": "10", "name": "Ballet Tech Nyc Ps For Dance", "zipcode": "10003", "longitude": "-73.98949", "grades": "4-8", "latitude": "40.73854"}, {"rating": "10", "name": "Nyc Lab Ms For Collaborative Studies", "zipcode": "10011", "longitude": "-74.00237", "grades": "6-8", "latitude": "40.742573"}, {"rating": "10", "name": "The Anderson School", "zipcode": "10024", "longitude": "-73.97809", "grades": "K-8", "latitude": "40.781082"}, {"rating": "10", "name": "Success Academy Harlem 1", "zipcode": "10026", "longitude": "-73.94826", "grades": "K-9", "latitude": "40.803013"}, {"rating": "10", "name": "High School Math Science And Engineering At Ccny", "zipcode": "10031", "longitude": "-73.948845", "grades": "9-12", "latitude": "40.821396"}, {"rating": "10", "name": "Spruce Street School", "zipcode": "10038", "longitude": "-74.00536", "grades": "PK-5", "latitude": "40.711056"}, {"rating": "10", "name": "Harlem Success Academy Charter School 4", "zipcode": "10026", "longitude": "-73.95529", "grades": "K-7", "latitude": "40.80165"}, {"rating": "10", "name": "Harlem Success Academy Charter School 3", "zipcode": "10029", "longitude": "-73.94455", "grades": "K-7", "latitude": "40.796047"}, {"rating": "10", "name": "Harlem Success Academy Charter School 2", "zipcode": "10035", "longitude": "-73.93533", "grades": "K-6", "latitude": "40.805717"}, {"rating": "10", "name": "Ps 452", "zipcode": "10024", "longitude": "-73.97809", "grades": "K-4", "latitude": "40.781082"}, {"rating": "10", "name": "Harlem Success Academy Charter School 5", "zipcode": "10030", "longitude": "-73.94446", "grades": "K-5", "latitude": "40.82019"}, {"rating": "10", "name": "Success Academy Upper West", "zipcode": "10024", "longitude": "-73.974075", "grades": "K-4", "latitude": "40.785954"}, {"rating": "10", "name": "Neighborhood Charter School of Harlem", "zipcode": "10027", "longitude": "-73.94738", "grades": "K-3", "latitude": "40.80758"}, {"rating": "9", "name": "Institute For Collaborative Education", "zipcode": "10003", "longitude": "-73.982574", "grades": "6-12", "latitude": "40.732677"}, {"rating": "9", "name": "Ps 11 William T Harris", "zipcode": "10011", "longitude": "-74.00074", "grades": "PK-5", "latitude": "40.74455"}, {"rating": "9", "name": "Ps 33 Chelsea Prep", "zipcode": "10001", "longitude": "-74.000244", "grades": "PK-5", "latitude": "40.748943"}, {"rating": "9", "name": "Ps 42 Benjamin Altman", "zipcode": "10002", "longitude": "-73.990845", "grades": "PK-5", "latitude": "40.716137"}, {"rating": "9", "name": "Jhs 54 Booker T Washington", "zipcode": "10025", "longitude": "-73.9628", "grades": "6-8", "latitude": "40.80051"}, {"rating": "9", "name": "Ps 116 Mary Lindley Murray", "zipcode": "10016", "longitude": "-73.97763", "grades": "PK-5", "latitude": "40.744427"}, {"rating": "9", "name": "Ps 163 Alfred E Smith", "zipcode": "10025", "longitude": "-73.96854", "grades": "PK-5", "latitude": "40.794945"}, {"rating": "9", "name": "Ps 171 Patrick Henry", "zipcode": "10029", "longitude": "-73.95145", "grades": "PK-8", "latitude": "40.792305"}, {"rating": "9", "name": "School Of The Future High School", "zipcode": "10010", "longitude": "-73.98535", "grades": "6-12", "latitude": "40.739094"}, {"rating": "9", "name": "Jhs 104 Simon Baruch", "zipcode": "10010", "longitude": "-73.98042", "grades": "6-8", "latitude": "40.735893"}, {"rating": "9", "name": "The Mott Hall School", "zipcode": "10027", "longitude": "-73.952675", "grades": "6-8", "latitude": "40.81582"}, {"rating": "9", "name": "Ps 333 Manhattan School For Children", "zipcode": "10025", "longitude": "-73.97077", "grades": "K-8", "latitude": "40.791683"}, {"rating": "9", "name": "Ps 212 Midtown West", "zipcode": "10036", "longitude": "-73.98867", "grades": "PK-5", "latitude": "40.76133"}, {"rating": "9", "name": "Eleanor Roosevelt High School", "zipcode": "10021", "longitude": "-73.95327", "grades": "9-12", "latitude": "40.770283"}, {"rating": "9", "name": "Millennium High School", "zipcode": "10004", "longitude": "-74.01123", "grades": "9-12", "latitude": "40.704685"}, {"rating": "9", "name": "The East Village Community School", "zipcode": "10009", "longitude": "-73.97838", "grades": "PK-5", "latitude": "40.727726"}, {"rating": "9", "name": "Tompkins Square Middle School", "zipcode": "10009", "longitude": "-73.981606", "grades": "6-8", "latitude": "40.723747"}, {"rating": "9", "name": "Bard High School Early College", "zipcode": "10002", "longitude": "-73.976074", "grades": "9-12", "latitude": "40.718094"}, {"rating": "9", "name": "Baruch College Campus High School", "zipcode": "10010", "longitude": "-73.98585", "grades": "9-12", "latitude": "40.741875"}, {"rating": "9", "name": "High School For Dual Language And Asian Studies", "zipcode": "10002", "longitude": "-73.98932", "grades": "9-12", "latitude": "40.717316"}, {"rating": "9", "name": "Mott Hall Ii", "zipcode": "10025", "longitude": "-73.96595", "grades": "6-8", "latitude": "40.802677"}, {"rating": "9", "name": "Tag Young Scholars", "zipcode": "10029", "longitude": "-73.942116", "grades": "K-8", "latitude": "40.79259"}, {"rating": "9", "name": "Columbia Secondary School", "zipcode": "10027", "longitude": "-73.95585", "grades": "6-12", "latitude": "40.81064"}, {"rating": "9", "name": "Battery Park City School", "zipcode": "10011", "longitude": "-74.01765", "grades": "K-8", "latitude": "40.706738"}, {"rating": "9", "name": "Special Music School", "zipcode": "10023", "longitude": "-73.982994", "grades": "K-10", "latitude": "40.775223"}, {"rating": "9", "name": "East Side Elementary School, PS 267", "zipcode": "10065", "longitude": "-73.96387", "grades": "PK-4", "latitude": "40.763878"}, {"rating": "8", "name": "Manhattan Village Academy", "zipcode": "10010", "longitude": "-73.992256", "grades": "9-12", "latitude": "40.741962"}, {"rating": "8", "name": "East Side Community School", "zipcode": "10009", "longitude": "-73.982475", "grades": "6-12", "latitude": "40.729153"}, {"rating": "8", "name": "Professional Performing Arts High School", "zipcode": "10036", "longitude": "-73.98867", "grades": "6-12", "latitude": "40.76133"}, {"rating": "8", "name": "Ps 2 Meyer London", "zipcode": "10002", "longitude": "-73.991554", "grades": "PK-5", "latitude": "40.712944"}, {"rating": "8", "name": "Ps 84 Lilian Weber", "zipcode": "10025", "longitude": "-73.9681", "grades": "PK-5", "latitude": "40.789383"}, {"rating": "8", "name": "Ps 110 Florence Nightingale", "zipcode": "10002", "longitude": "-73.97993", "grades": "PK-5", "latitude": "40.715294"}, {"rating": "8", "name": "Ps 126 Jacob August Riis", "zipcode": "10038", "longitude": "-73.997", "grades": "PK-8", "latitude": "40.71045"}, {"rating": "8", "name": "Ps Is 187 Hudson Cliffs", "zipcode": "10040", "longitude": "-73.937294", "grades": "K-8", "latitude": "40.856136"}, {"rating": "8", "name": "Nyc Museum School", "zipcode": "10011", "longitude": "-74.00237", "grades": "9-12", "latitude": "40.742573"}, {"rating": "8", "name": "Ms 131", "zipcode": "10002", "longitude": "-73.99355", "grades": "6-8", "latitude": "40.716213"}, {"rating": "8", "name": "Fiorello H Laguardia High School of Music, Art and Performing Arts", "zipcode": "10023", "longitude": "-73.985916", "grades": "9-12", "latitude": "40.774162"}, {"rating": "8", "name": "Manhattan Center for Science & Mathematics", "zipcode": "10029", "longitude": "-73.93269", "grades": "9-12", "latitude": "40.794167"}, {"rating": "8", "name": "Ms 245 The Computer School", "zipcode": "10024", "longitude": "-73.97809", "grades": "6-8", "latitude": "40.781082"}, {"rating": "8", "name": "Harbor Science and Arts Charter School", "zipcode": "10029", "longitude": "-73.94453", "grades": "K-8", "latitude": "40.795536"}, {"rating": "8", "name": "Ms 224 Manhattan East School For Arts And Academy", "zipcode": "10029", "longitude": "-73.94201", "grades": "6-8", "latitude": "40.785027"}, {"rating": "8", "name": "Harvey Milk High School", "zipcode": "10003", "longitude": "-73.99223", "grades": "9-12", "latitude": "40.729702"}, {"rating": "8", "name": "Manhattan/Hunter Science High School", "zipcode": "10023", "longitude": "-73.98562", "grades": "9-12", "latitude": "40.7749"}, {"rating": "8", "name": "The Children S Workshop School", "zipcode": "10009", "longitude": "-73.97838", "grades": "PK-5", "latitude": "40.727726"}, {"rating": "8", "name": "Lower Manhattan Community Middle School", "zipcode": "10004", "longitude": "-74.012886", "grades": "6-8", "latitude": "40.70544"}, {"rating": "8", "name": "Central Park East Ii", "zipcode": "10029", "longitude": "-73.95145", "grades": "PK-5", "latitude": "40.792305"}, {"rating": "8", "name": "Muscota", "zipcode": "10034", "longitude": "-73.92382", "grades": "K-5", "latitude": "40.866524"}, {"rating": "8", "name": "Yorkville Community School", "zipcode": "10128", "longitude": "-73.94732", "grades": "K-5", "latitude": "40.777924"}, {"rating": "7", "name": "Talent Unlimited High School", "zipcode": "10065", "longitude": "-73.959694", "grades": "9-12", "latitude": "40.76537"}, {"rating": "7", "name": "Ps 7 Louis F Simeone", "zipcode": "11373", "longitude": "-73.882576", "grades": "K-3", "latitude": "40.73975"}, {"rating": "7", "name": "Ps 1 Alfred E Smith", "zipcode": "10038", "longitude": "-73.997475", "grades": "PK-5", "latitude": "40.712563"}, {"rating": "7", "name": "Ps 19 Asher Levy", "zipcode": "10003", "longitude": "-73.98423", "grades": "PK-5", "latitude": "40.729893"}, {"rating": "7", "name": "Ps 125 Ralph Bunche", "zipcode": "10027", "longitude": "-73.95585", "grades": "PK-5", "latitude": "40.81064"}, {"rating": "7", "name": "Nyc Lab High School For Collaborative Studies", "zipcode": "10011", "longitude": "-74.00237", "grades": "9-12", "latitude": "40.742573"}, {"rating": "7", "name": "Young Women's Leadership School", "zipcode": "10029", "longitude": "-73.94717", "grades": "6-12", "latitude": "40.792934"}, {"rating": "7", "name": "Ella Baker School", "zipcode": "10065", "longitude": "-73.959694", "grades": "PK-8", "latitude": "40.76537"}, {"rating": "7", "name": "Ps Is 217 Roosevelt Island", "zipcode": "10044", "longitude": "-73.94847", "grades": "PK-8", "latitude": "40.76397"}, {"rating": "7", "name": "New York Mills Elementary School", "zipcode": "13417", "longitude": "-75.291374", "grades": "K-6", "latitude": "43.092567"}, {"rating": "7", "name": "Amber Charter School", "zipcode": "10029", "longitude": "-73.94391", "grades": "K-5", "latitude": "40.790928"}, {"rating": "7", "name": "Ps 83 Luis Munoz Rivera", "zipcode": "10029", "longitude": "-73.94181", "grades": "PK-5", "latitude": "40.79313"}, {"rating": "7", "name": "City College Academy Of The Arts", "zipcode": "10040", "longitude": "-73.93007", "grades": "6-12", "latitude": "40.86082"}, {"rating": "7", "name": "Earth School", "zipcode": "10009", "longitude": "-73.981606", "grades": "PK-5", "latitude": "40.723747"}, {"rating": "7", "name": "Girls Preparatory Charter School of New York", "zipcode": "10002", "longitude": "-73.97738", "grades": "K-8", "latitude": "40.71987"}, {"rating": "7", "name": "Harlem Children S Zone Promise Academy Ii Charter", "zipcode": "10035", "longitude": "-73.94102", "grades": "K-10", "latitude": "40.806206"}, {"rating": "7", "name": "Paula Hedbavny School", "zipcode": "10034", "longitude": "-73.91249", "grades": "K-8", "latitude": "40.8716"}, {"rating": "7", "name": "Democracy Preparatory Charter School", "zipcode": "10030", "longitude": "-73.94581", "grades": "6-12", "latitude": "40.81495"}, {"rating": "7", "name": "Lower East Side Preparatory High School", "zipcode": "10002", "longitude": "-73.985954", "grades": "10-12", "latitude": "40.720184"}, {"rating": "7", "name": "Nyc Ischool", "zipcode": "10013", "longitude": "-74.005066", "grades": "9-12", "latitude": "40.724636"}, {"rating": "7", "name": "Emma Lazarus High School", "zipcode": "10002", "longitude": "-73.99355", "grades": "9-12", "latitude": "40.716213"}, {"rating": "7", "name": "Frank Mccourt High School", "zipcode": "10024", "longitude": "-73.974075", "grades": "9-12", "latitude": "40.785954"}, {"rating": "7", "name": "Democracy Prep Endurance Charter School", "zipcode": "10027", "longitude": "-73.94886", "grades": "6-8", "latitude": "40.810555"}, {"rating": "6", "name": "Central Park East High School", "zipcode": "10029", "longitude": "-73.94857", "grades": "9-12", "latitude": "40.793747"}, {"rating": "6", "name": "High School for Health Professions & Human Services", "zipcode": "10003", "longitude": "-73.982574", "grades": "9-12", "latitude": "40.732677"}, {"rating": "6", "name": "Chelsea Career And Technical Education High School", "zipcode": "10013", "longitude": "-74.005066", "grades": "9-12", "latitude": "40.724636"}, {"rating": "6", "name": "P.S. 51 Elias Howe", "zipcode": "10036", "longitude": "-73.99559", "grades": "PK-5", "latitude": "40.761593"}, {"rating": "6", "name": "Ps 75 Emily Dickinson", "zipcode": "10025", "longitude": "-73.97399", "grades": "K-5", "latitude": "40.79511"}, {"rating": "6", "name": "Ps 198 Isador E Ida Straus", "zipcode": "10128", "longitude": "-73.95003", "grades": "PK-5", "latitude": "40.785015"}, {"rating": "6", "name": "Professor Juan Bosch Public School", "zipcode": "10040", "longitude": "-73.92821", "grades": "K-4", "latitude": "40.85934"}, {"rating": "6", "name": "Manhattan Comprehensive Night And Day High School", "zipcode": "10003", "longitude": "-73.98432", "grades": "10-12", "latitude": "40.732674"}, {"rating": "6", "name": "New York Mills Junior Senior High School", "zipcode": "13417", "longitude": "-75.291374", "grades": "7-12", "latitude": "43.092567"}, {"rating": "6", "name": "Ms 247 Dual Language Middle School", "zipcode": "10025", "longitude": "-73.9681", "grades": "6-8", "latitude": "40.789383"}, {"rating": "6", "name": "Urban Academy Laboratory High School", "zipcode": "10065", "longitude": "-73.959694", "grades": "9-12", "latitude": "40.76537"}, {"rating": "6", "name": "KIPP S.T.A.R. Charter School", "zipcode": "10027", "longitude": "-73.95634", "grades": "K, 5-12", "latitude": "40.810856"}, {"rating": "6", "name": "Manhattan Charter School", "zipcode": "10002", "longitude": "-73.984085", "grades": "K-5", "latitude": "40.71823"}, {"rating": "6", "name": "Harlem Children's Zone Promise Academy Charter School", "zipcode": "10027", "longitude": "-73.94816", "grades": "K-11", "latitude": "40.812588"}, {"rating": "6", "name": "Kipp Infinity Charter School", "zipcode": "10027", "longitude": "-73.95724", "grades": "K-12", "latitude": "40.819763"}, {"rating": "6", "name": "Democracy Prep Harlem Charter School", "zipcode": "10030", "longitude": "-73.94512", "grades": "K-1, 6-10", "latitude": "40.81441"}, {"rating": "6", "name": "KIPP NYC WASHINGTON HEIGHTS CHARTER", "zipcode": "10032", "longitude": "-73.935776", "grades": "K-3, 5-7", "latitude": "40.83941"}, {"rating": "6", "name": "Manhattan Charter School II", "zipcode": "10002", "longitude": "-73.98607", "grades": "K-3", "latitude": "40.713345"}, {"rating": "6", "name": "Great Oaks Charter School", "zipcode": "10002", "longitude": "-73.99652", "grades": "6", "latitude": "40.71154"}, {"rating": "6", "name": "E Harlem Scholars Acad Charter School", "zipcode": "10029", "longitude": "-73.94857", "grades": "K-4", "latitude": "40.793747"}, {"rating": "5", "name": "Jefferson Central School", "zipcode": "10014", "longitude": "-74.00932", "grades": "PK-12", "latitude": "40.740013"}, {"rating": "5", "name": "Repertory Company High School for Theatre Arts", "zipcode": "10036", "longitude": "-73.98445", "grades": "9-12", "latitude": "40.756115"}, {"rating": "5", "name": "The High School of Fashion Industries", "zipcode": "10011", "longitude": "-73.99639", "grades": "9-12", "latitude": "40.745705"}, {"rating": "5", "name": "Ps 7 Samuel Stern", "zipcode": "10035", "longitude": "-73.93932", "grades": "PK-8", "latitude": "40.800632"}, {"rating": "5", "name": "Ps 20 Anna Silver", "zipcode": "10002", "longitude": "-73.98631", "grades": "PK-5", "latitude": "40.721275"}, {"rating": "5", "name": "Ps 34 Franklin D Roosevelt", "zipcode": "10009", "longitude": "-73.975044", "grades": "PK-8", "latitude": "40.726147"}, {"rating": "5", "name": "James Weldon Johnson School", "zipcode": "10029", "longitude": "-73.941284", "grades": "PK-8", "latitude": "40.797157"}, {"rating": "5", "name": "S.T.A.R. Academy - PS 63", "zipcode": "10009", "longitude": "-73.985916", "grades": "PK-5", "latitude": "40.723904"}, {"rating": "5", "name": "Humanities Preparatory Academy", "zipcode": "10011", "longitude": "-74.00255", "grades": "9-12", "latitude": "40.743366"}, {"rating": "5", "name": "Harlem Day Charter School", "zipcode": "10035", "longitude": "-73.93508", "grades": "K-8", "latitude": "40.801376"}, {"rating": "5", "name": "Ms 250 West Side Collaborative Middle School", "zipcode": "10025", "longitude": "-73.97399", "grades": "6-8", "latitude": "40.79511"}, {"rating": "5", "name": "Sisulu Walker Charter School Of Harlem", "zipcode": "10026", "longitude": "-73.951355", "grades": "K-5", "latitude": "40.8021"}, {"rating": "5", "name": "Marble Hill High School of International Studies", "zipcode": "10463", "longitude": "-73.91333", "grades": "9-12", "latitude": "40.8776"}, {"rating": "5", "name": "Thurgood Marshall Academy Lower School", "zipcode": "10039", "longitude": "-73.93794", "grades": "K-5", "latitude": "40.825966"}, {"rating": "5", "name": "Neighborhood School", "zipcode": "10009", "longitude": "-73.98636", "grades": "PK-5", "latitude": "40.724403"}, {"rating": "5", "name": "Essex Street Academy", "zipcode": "10002", "longitude": "-73.98932", "grades": "9-12", "latitude": "40.717316"}, {"rating": "5", "name": "Pace High School", "zipcode": "10002", "longitude": "-73.99355", "grades": "9-12", "latitude": "40.716213"}, {"rating": "5", "name": "Future Leaders Institute Charter School", "zipcode": "10027", "longitude": "-73.94833", "grades": "K-8", "latitude": "40.806175"}, {"rating": "5", "name": "Harlem Village Academy Leadership Middle School", "zipcode": "10035", "longitude": "-73.93395", "grades": "K-2, 5-12", "latitude": "40.799316"}, {"rating": "5", "name": "Harlem Village Academy Charter School", "zipcode": "10027", "longitude": "-73.944016", "grades": "K-2, 5-12", "latitude": "40.806557"}, {"rating": "5", "name": "Washington Heights Expeditionary Learning School", "zipcode": "10033", "longitude": "-73.93111", "grades": "PK-K, 6-12", "latitude": "40.8491"}, {"rating": "5", "name": "Cascades High School", "zipcode": "10002", "longitude": "-73.99049", "grades": "9-12", "latitude": "40.722412"}, {"rating": "5", "name": "High School 560 City As School", "zipcode": "10014", "longitude": "-74.0061", "grades": "10-12", "latitude": "40.72911"}, {"rating": "5", "name": "Satellite Academy High School", "zipcode": "10001", "longitude": "-73.990555", "grades": "9-12", "latitude": "40.747433"}, {"rating": "5", "name": "Washington Heights Academy", "zipcode": "10034", "longitude": "-73.9216", "grades": "PK-6", "latitude": "40.865574"}, {"rating": "5", "name": "Quest To Learn", "zipcode": "10011", "longitude": "-74.00255", "grades": "6-11", "latitude": "40.743366"}, {"rating": "5", "name": "Global Technology Preparatory", "zipcode": "10035", "longitude": "-73.93932", "grades": "6-8", "latitude": "40.800632"}, {"rating": "5", "name": "Dream Charter School", "zipcode": "10029", "longitude": "-73.94409", "grades": "K-7", "latitude": "40.78834"}, {"rating": "5", "name": "The Equity Project Charter School", "zipcode": "10040", "longitude": "-73.92699", "grades": "5-8", "latitude": "40.855934"}, {"rating": "5", "name": "Harvest Collegiate High School", "zipcode": "10011", "longitude": "-73.995476", "grades": "9-11", "latitude": "40.736588"}, {"rating": "5", "name": "Academy for Software Engineering", "zipcode": "10003", "longitude": "-73.98708", "grades": "9-11", "latitude": "40.735325"}, {"rating": "5", "name": "New York French American Charter School", "zipcode": "10027", "longitude": "-73.95422", "grades": "K-5", "latitude": "40.80754"}, {"rating": "5", "name": "Urban Assembly-Emergency Management", "zipcode": "10038", "longitude": "-74.00132", "grades": "9-10", "latitude": "40.711033"}, {"rating": "4", "name": "Landmark High School", "zipcode": "10011", "longitude": "-74.00255", "grades": "9-12", "latitude": "40.743366"}, {"rating": "4", "name": "Vanguard High School", "zipcode": "10065", "longitude": "-73.959694", "grades": "9-12", "latitude": "40.76537"}, {"rating": "4", "name": "Park East High School", "zipcode": "10029", "longitude": "-73.94417", "grades": "9-12", "latitude": "40.790203"}, {"rating": "4", "name": "High School Of Economics And Finance", "zipcode": "10006", "longitude": "-74.01233", "grades": "9-12", "latitude": "40.70929"}, {"rating": "4", "name": "Frederick Douglass Academy", "zipcode": "10039", "longitude": "-73.93655", "grades": "6-12", "latitude": "40.824398"}, {"rating": "4", "name": "Marta Valle High School", "zipcode": "10002", "longitude": "-73.985954", "grades": "9-12", "latitude": "40.720184"}, {"rating": "4", "name": "Art and Design High School", "zipcode": "10019", "longitude": "-73.98286", "grades": "9-12", "latitude": "40.76585"}, {"rating": "4", "name": "Ps 28 Wright Brothers", "zipcode": "10032", "longitude": "-73.94208", "grades": "PK-5", "latitude": "40.831654"}, {"rating": "4", "name": "The Bilingual Bicultural School", "zipcode": "10029", "longitude": "-73.94181", "grades": "K-5", "latitude": "40.79313"}, {"rating": "4", "name": "Ps 111 Adolph S Ochs", "zipcode": "10019", "longitude": "-73.9896", "grades": "PK-5, 7-8", "latitude": "40.765835"}, {"rating": "4", "name": "Ps 134 Henrietta Szold", "zipcode": "10002", "longitude": "-73.98296", "grades": "PK-5", "latitude": "40.714302"}, {"rating": "4", "name": "Ps 153 Adam Clayton Powell", "zipcode": "10031", "longitude": "-73.94746", "grades": "PK-5", "latitude": "40.826477"}, {"rating": "4", "name": "Ps 173", "zipcode": "10033", "longitude": "-73.939735", "grades": "PK-5", "latitude": "40.84562"}, {"rating": "4", "name": "Ps Is 210 21st Century Academy For Community Lders", "zipcode": "10031", "longitude": "-73.94465", "grades": "PK-8", "latitude": "40.83001"}, {"rating": "4", "name": "A Philip Randolph Campus High School", "zipcode": "10031", "longitude": "-73.95027", "grades": "9-12", "latitude": "40.81817"}, {"rating": "4", "name": "Ps 242 The Young Diplomats Magnet School", "zipcode": "10027", "longitude": "-73.94833", "grades": "PK-5", "latitude": "40.806175"}, {"rating": "4", "name": "Community Action School Ms 258", "zipcode": "10025", "longitude": "-73.97077", "grades": "6-8", "latitude": "40.791683"}, {"rating": "4", "name": "Thurgood Marshall Academy For Learning And Social", "zipcode": "10030", "longitude": "-73.944305", "grades": "6-12", "latitude": "40.815296"}, {"rating": "4", "name": "Manhattan Bridges High School", "zipcode": "10019", "longitude": "-73.99299", "grades": "9-12", "latitude": "40.765594"}, {"rating": "4", "name": "Ps 180 Hugo Newman", "zipcode": "10027", "longitude": "-73.95584", "grades": "PK-8", "latitude": "40.80761"}, {"rating": "4", "name": "Urban Assembly Academy Of Government And Law", "zipcode": "10002", "longitude": "-73.98932", "grades": "9-12", "latitude": "40.717316"}, {"rating": "4", "name": "Lower Manhattan Arts Academy", "zipcode": "10002", "longitude": "-73.98932", "grades": "9-12", "latitude": "40.717316"}, {"rating": "4", "name": "University Neighborhood Middle School", "zipcode": "10002", "longitude": "-73.98607", "grades": "6-8", "latitude": "40.713345"}, {"rating": "4", "name": "High School Of Hospitality Management", "zipcode": "10019", "longitude": "-73.99299", "grades": "9-12", "latitude": "40.765594"}, {"rating": "4", "name": "River East Elementary School", "zipcode": "10035", "longitude": "-73.92998", "grades": "PK-5", "latitude": "40.796906"}, {"rating": "4", "name": "Amistad Dual Language School", "zipcode": "10034", "longitude": "-73.92382", "grades": "K-8", "latitude": "40.866524"}, {"rating": "4", "name": "Ms 324 Patria Mirabal", "zipcode": "10032", "longitude": "-73.935776", "grades": "6-8", "latitude": "40.83941"}, {"rating": "4", "name": "New Heights Academy Charter School", "zipcode": "10031", "longitude": "-73.945404", "grades": "5-12", "latitude": "40.828613"}, {"rating": "4", "name": "Collaborative Academy Of Science Technology And Lang", "zipcode": "10002", "longitude": "-73.98607", "grades": "6-8", "latitude": "40.713345"}, {"rating": "4", "name": "School For Global Leaders", "zipcode": "10002", "longitude": "-73.985954", "grades": "6-8", "latitude": "40.720184"}, {"rating": "4", "name": "Manhattan Business Academy", "zipcode": "10011", "longitude": "-74.00255", "grades": "9-12", "latitude": "40.743366"}, {"rating": "4", "name": "The Global Learning Collaborative", "zipcode": "10024", "longitude": "-73.974075", "grades": "9-12", "latitude": "40.785954"}, {"rating": "4", "name": "Academy of Innovative Technology", "zipcode": "11208", "longitude": "-73.869064", "grades": "9-12", "latitude": "40.693005"}, {"rating": "4", "name": "Urban Assembly New York Harbor School", "zipcode": "10004", "longitude": "-74.01083", "grades": "9-12", "latitude": "40.703037"}, {"rating": "4", "name": "Murray Hill Academy", "zipcode": "10016", "longitude": "-73.981026", "grades": "9-12", "latitude": "40.746433"}], "los_angeles": [{"rating": "10", "name": "Francisco Bravo Medical Magnet High School", "zipcode": "90033", "longitude": "-118.20387", "grades": "9-12", "latitude": "34.05734"}, {"rating": "10", "name": "Clover Avenue Elementary School", "zipcode": "90034", "longitude": "-118.42603", "grades": "K-5", "latitude": "34.027187"}, {"rating": "10", "name": "Community Magnet Charter Elementary School", "zipcode": "90049", "longitude": "-118.46224", "grades": "K-5", "latitude": "34.081802"}, {"rating": "10", "name": "Downtown Business High School", "zipcode": "90012", "longitude": "-118.25104", "grades": "9-12", "latitude": "34.062916"}, {"rating": "10", "name": "Ivanhoe Elementary School", "zipcode": "90039", "longitude": "-118.26733", "grades": "K-5", "latitude": "34.10904"}, {"rating": "10", "name": "Kenter Canyon Elementary School", "zipcode": "90049", "longitude": "-118.48849", "grades": "K-5", "latitude": "34.07019"}, {"rating": "10", "name": "Open Charter Magnet School", "zipcode": "90045", "longitude": "-118.3778", "grades": "K-5", "latitude": "33.96853"}, {"rating": "10", "name": "Overland Avenue Elementary School", "zipcode": "90064", "longitude": "-118.421", "grades": "K-5", "latitude": "34.038563"}, {"rating": "10", "name": "Roscomare Road Elementary School", "zipcode": "90077", "longitude": "-118.46368", "grades": "K-5", "latitude": "34.119644"}, {"rating": "10", "name": "Warner Avenue Elementary School", "zipcode": "90024", "longitude": "-118.4339", "grades": "K-5", "latitude": "34.070194"}, {"rating": "10", "name": "Westwood Charter Elementary School", "zipcode": "90025", "longitude": "-118.43081", "grades": "K-5", "latitude": "34.047573"}, {"rating": "10", "name": "Wonderland Avenue Elementary School", "zipcode": "90046", "longitude": "-118.37939", "grades": "K-5", "latitude": "34.114346"}, {"rating": "10", "name": "Larchmont Charter School", "zipcode": "90028", "longitude": "-118.32331", "grades": "K-12", "latitude": "34.078724"}, {"rating": "10", "name": "KIPP Raices Academy", "zipcode": "90022", "longitude": "-118.16782", "grades": "K-4", "latitude": "34.04172"}, {"rating": "10", "name": "Porter Ranch Community School", "zipcode": "91326", "longitude": "-118.58186", "grades": "K-8", "latitude": "34.29444"}, {"rating": "9", "name": "Castle Heights Elementary School", "zipcode": "90034", "longitude": "-118.39761", "grades": "K-5", "latitude": "34.03717"}, {"rating": "9", "name": "Fairburn Avenue Elementary School", "zipcode": "90024", "longitude": "-118.43113", "grades": "K-5", "latitude": "34.05963"}, {"rating": "9", "name": "Franklin Avenue Elementary School", "zipcode": "90027", "longitude": "-118.2852", "grades": "K-6", "latitude": "34.105743"}, {"rating": "9", "name": "Hancock Park Elementary School", "zipcode": "90036", "longitude": "-118.36137", "grades": "K-5", "latitude": "34.06961"}, {"rating": "9", "name": "Mar Vista Elementary School", "zipcode": "90066", "longitude": "-118.43521", "grades": "K-5", "latitude": "34.016174"}, {"rating": "9", "name": "Melrose Elementary School", "zipcode": "90046", "longitude": "-118.34569", "grades": "K-5", "latitude": "34.08439"}, {"rating": "9", "name": "Mt. Washington Elementary School", "zipcode": "90065", "longitude": "-118.21535", "grades": "K-6", "latitude": "34.10471"}, {"rating": "9", "name": "Solano Avenue Elementary School", "zipcode": "90012", "longitude": "-118.23233", "grades": "K-6", "latitude": "34.075882"}, {"rating": "9", "name": "Third Street Elementary School", "zipcode": "90004", "longitude": "-118.33482", "grades": "K-5", "latitude": "34.071007"}, {"rating": "9", "name": "Renaissance Arts Academy", "zipcode": "90041", "longitude": "-118.20657", "grades": "6-12", "latitude": "34.139"}, {"rating": "9", "name": "KIPP Los Angeles College Preparatory School", "zipcode": "90023", "longitude": "-118.20952", "grades": "5-8", "latitude": "34.031242"}, {"rating": "9", "name": "L.A. County High School For The Arts", "zipcode": "90032", "longitude": "-118.17158", "grades": "9-12", "latitude": "34.062344"}, {"rating": "9", "name": "Puc Milagro Charter School", "zipcode": "90031", "longitude": "-118.22026", "grades": "K-5", "latitude": "34.066425"}, {"rating": "9", "name": "Alliance Dr. Olga Mohan High School", "zipcode": "90015", "longitude": "-118.27124", "grades": "9-12", "latitude": "34.03661"}, {"rating": "9", "name": "Celerity Troika Charter School", "zipcode": "90041", "longitude": "-118.197365", "grades": "K-8", "latitude": "34.13963"}, {"rating": "9", "name": "Goethe International Charter School", "zipcode": "90066", "longitude": "-118.4209", "grades": "PK-5", "latitude": "33.987576"}, {"rating": "9", "name": "KIPP Empower Academy", "zipcode": "90003", "longitude": "-118.28241", "grades": "K-4", "latitude": "33.961937"}, {"rating": "9", "name": "Valley Charter Elementary School", "zipcode": "91343", "longitude": "-118.49204", "grades": "K-5", "latitude": "34.234962"}, {"rating": "9", "name": "Citizens of the World Charter School", "zipcode": "90028", "longitude": "-118.31685", "grades": "K-8", "latitude": "34.094803"}, {"rating": "9", "name": "The City School", "zipcode": "90064", "longitude": "-118.44458", "grades": "6-8", "latitude": "34.03252"}, {"rating": "9", "name": "Playa Vista Elementary", "zipcode": "90094", "longitude": "-118.42636", "grades": "K-5", "latitude": "33.968037"}, {"rating": "9", "name": "Citizens of the World Charter School Mar Vista", "zipcode": "90064", "longitude": "-118.44249", "grades": "K-5", "latitude": "34.031933"}, {"rating": "9", "name": "Math And Science College Preparatory", "zipcode": "90018", "longitude": "-118.31897", "grades": "9-12", "latitude": "34.03196"}, {"rating": "9", "name": "KIPP Academy Of Innovation", "zipcode": "90022", "longitude": "-118.16131", "grades": "5-8", "latitude": "34.040184"}, {"rating": "8", "name": "Beethoven Street Elementary School", "zipcode": "90066", "longitude": "-118.44318", "grades": "K-5", "latitude": "34.002308"}, {"rating": "8", "name": "Canfield Avenue Elementary School", "zipcode": "90035", "longitude": "-118.39047", "grades": "K-5", "latitude": "34.049793"}, {"rating": "8", "name": "Clifford Street Elementary School", "zipcode": "90039", "longitude": "-118.25776", "grades": "K-6", "latitude": "34.089294"}, {"rating": "8", "name": "Delevan Drive Elementary School", "zipcode": "90065", "longitude": "-118.22724", "grades": "K-6", "latitude": "34.127144"}, {"rating": "8", "name": "Eagle Rock Elementary and Magnet Center", "zipcode": "90041", "longitude": "-118.21297", "grades": "PK-6", "latitude": "34.13635"}, {"rating": "8", "name": "Eagle Rock High School", "zipcode": "90041", "longitude": "-118.20602", "grades": "7-12", "latitude": "34.13336"}, {"rating": "8", "name": "King/Drew Medical Magnet High School", "zipcode": "90059", "longitude": "-118.2462", "grades": "9-12", "latitude": "33.923805"}, {"rating": "8", "name": "Thomas Starr King Middle School", "zipcode": "90029", "longitude": "-118.280846", "grades": "6-8", "latitude": "34.096985"}, {"rating": "8", "name": "John Marshall Senior High School", "zipcode": "90027", "longitude": "-118.27759", "grades": "9-12", "latitude": "34.10774"}, {"rating": "8", "name": "Paul Revere Middle School", "zipcode": "90049", "longitude": "-118.49586", "grades": "6-8", "latitude": "34.054752"}, {"rating": "8", "name": "Valley View Elementary School", "zipcode": "90068", "longitude": "-118.34437", "grades": "K-6", "latitude": "34.12466"}, {"rating": "8", "name": "KIPP Sol Academy", "zipcode": "90022", "longitude": "-118.167816", "grades": "5-8", "latitude": "34.04176"}, {"rating": "8", "name": "Los Angeles Center For Enriched Studies", "zipcode": "90035", "longitude": "-118.3713", "grades": "6-12", "latitude": "34.04352"}, {"rating": "8", "name": "Synergy Charter Academy", "zipcode": "90011", "longitude": "-118.25772", "grades": "K-5", "latitude": "34.01274"}, {"rating": "8", "name": "Ocean Charter School", "zipcode": "90066", "longitude": "-118.42411", "grades": "K-8", "latitude": "33.986973"}, {"rating": "8", "name": "Orthopaedic Hospital", "zipcode": "90007", "longitude": "-118.27061", "grades": "9-12", "latitude": "34.029057"}, {"rating": "8", "name": "Puc Ca Academy For Liberal Studies Early College High School", "zipcode": "90041", "longitude": "-118.25751", "grades": "9-12", "latitude": "34.048683"}, {"rating": "8", "name": "Gabriella Charter School", "zipcode": "90026", "longitude": "-118.25725", "grades": "K-8", "latitude": "34.079273"}, {"rating": "8", "name": "Alliance Marc & Eva Stern Math And Science", "zipcode": "90032", "longitude": "-118.17158", "grades": "9-12", "latitude": "34.062344"}, {"rating": "8", "name": "Bright Star Secondary Charter Academy", "zipcode": "90045", "longitude": "-118.27471", "grades": "9-11", "latitude": "33.999767"}, {"rating": "8", "name": "Charles H. Kim Elementary School", "zipcode": "90004", "longitude": "-118.30793", "grades": "K-5", "latitude": "34.0706"}, {"rating": "8", "name": "Global Education Academy", "zipcode": "90037", "longitude": "-118.28276", "grades": "K-5", "latitude": "34.008434"}, {"rating": "8", "name": "Alliance College-Ready Academy High No. 5", "zipcode": "90037", "longitude": "-118.31027", "grades": "9-12", "latitude": "34.01083"}, {"rating": "8", "name": "Los Angeles International Charter High School", "zipcode": "90042", "longitude": "-118.18326", "grades": "9-12", "latitude": "34.102604"}, {"rating": "8", "name": "Equitas Academy Charter School", "zipcode": "90015", "longitude": "-118.28649", "grades": "K-5", "latitude": "34.061897"}, {"rating": "8", "name": "Westside Innovative School House", "zipcode": "90045", "longitude": "-118.55032", "grades": "K-8", "latitude": "34.042118"}, {"rating": "8", "name": "Puc Lakeview Charter High School", "zipcode": "91342", "longitude": "-118.45976", "grades": "9-12", "latitude": "34.31419"}, {"rating": "8", "name": "Math, Science, & Technology Magnet Academy At Roosevelt High", "zipcode": "90033", "longitude": "-118.21185", "grades": "9-12", "latitude": "34.037476"}, {"rating": "8", "name": "Rise Kohyang Middle School", "zipcode": "90010", "longitude": "-118.287445", "grades": "6-8", "latitude": "34.06162"}, {"rating": "7", "name": "Allesandro Elementary School", "zipcode": "90039", "longitude": "-118.25088", "grades": "K-6", "latitude": "34.10122"}, {"rating": "7", "name": "Brooklyn Avenue Elementary School", "zipcode": "90022", "longitude": "-118.16653", "grades": "K-8", "latitude": "34.040573"}, {"rating": "7", "name": "John Burroughs Middle School", "zipcode": "90005", "longitude": "-118.33711", "grades": "6-8", "latitude": "34.06352"}, {"rating": "7", "name": "Cahuenga Elementary School", "zipcode": "90004", "longitude": "-118.30545", "grades": "K-5", "latitude": "34.070698"}, {"rating": "7", "name": "Castelar Street Elementary School", "zipcode": "90012", "longitude": "-118.24042", "grades": "K-5", "latitude": "34.06386"}, {"rating": "7", "name": "Cheremoya Avenue Elementary School", "zipcode": "90028", "longitude": "-118.32072", "grades": "K-6", "latitude": "34.10528"}, {"rating": "7", "name": "Dahlia Heights Elementary School", "zipcode": "90041", "longitude": "-118.19884", "grades": "K-6", "latitude": "34.13885"}, {"rating": "7", "name": "Dorris Place Elementary School", "zipcode": "90031", "longitude": "-118.23789", "grades": "K-6", "latitude": "34.090668"}, {"rating": "7", "name": "Fairfax Senior High School", "zipcode": "90046", "longitude": "-118.36072", "grades": "9-12", "latitude": "34.083767"}, {"rating": "7", "name": "Benjamin Franklin Senior High School", "zipcode": "90042", "longitude": "-118.19909", "grades": "6-12", "latitude": "34.115414"}, {"rating": "7", "name": "James A. Garfield Senior High School", "zipcode": "90022", "longitude": "-118.15788", "grades": "9-12", "latitude": "34.025326"}, {"rating": "7", "name": "Hollywood Senior High School", "zipcode": "90028", "longitude": "-118.33869", "grades": "9-12", "latitude": "34.09836"}, {"rating": "7", "name": "Kentwood Elementary School", "zipcode": "90045", "longitude": "-118.40433", "grades": "K-5", "latitude": "33.964046"}, {"rating": "7", "name": "Palms Middle School", "zipcode": "90034", "longitude": "-118.41661", "grades": "6-8", "latitude": "34.02384"}, {"rating": "7", "name": "Wilton Place Elementary School", "zipcode": "90005", "longitude": "-118.31429", "grades": "K-5", "latitude": "34.058697"}, {"rating": "7", "name": "Arroyo Seco Museum Science", "zipcode": "90042", "longitude": "-118.20325", "grades": "K-8", "latitude": "34.101875"}, {"rating": "7", "name": "Central City Value School", "zipcode": "90004", "longitude": "-118.28853", "grades": "9-12", "latitude": "34.0748"}, {"rating": "7", "name": "Wallis Annenberg High School", "zipcode": "90037", "longitude": "-118.27396", "grades": "9-12", "latitude": "34.01043"}, {"rating": "7", "name": "Animo Pat Brown", "zipcode": "90001", "longitude": "-118.24259", "grades": "9-12", "latitude": "33.963093"}, {"rating": "7", "name": "Alliance Gertz-Ressler Richard Merkin 6-12 Complex", "zipcode": "90007", "longitude": "-118.28304", "grades": "6-12", "latitude": "34.036488"}, {"rating": "7", "name": "Alliance Judy Ivie Burton Technology Academy High School", "zipcode": "90003", "longitude": "-118.27423", "grades": "9-12", "latitude": "33.947697"}, {"rating": "7", "name": "Animo Jackie Robinson High School", "zipcode": "90007", "longitude": "-118.27564", "grades": "9-12", "latitude": "34.018406"}, {"rating": "7", "name": "Los Feliz Charter School For The Arts", "zipcode": "90065", "longitude": "-118.33409", "grades": "K-6", "latitude": "34.09977"}, {"rating": "7", "name": "Alliance Environmental Science And Technology High School", "zipcode": "90065", "longitude": "-118.24694", "grades": "9-12", "latitude": "34.113853"}, {"rating": "7", "name": "Camino Nuevo Academy #2", "zipcode": "90026", "longitude": "-118.26295", "grades": "K-8", "latitude": "34.061455"}, {"rating": "7", "name": "Celerity Octavia Charter School", "zipcode": "90065", "longitude": "-118.241104", "grades": "K-8", "latitude": "34.11576"}, {"rating": "7", "name": "Alliance Tennenbaum Family Technology High", "zipcode": "90065", "longitude": "-118.42232", "grades": "9-12", "latitude": "34.31516"}, {"rating": "7", "name": "Metro Charter Elementary", "zipcode": "90015", "longitude": "-118.26585", "grades": "PK-4", "latitude": "34.036655"}, {"rating": "7", "name": "Valor Academy Charter High", "zipcode": "91402", "longitude": "-118.44932", "grades": "9-12", "latitude": "34.216614"}, {"rating": "7", "name": "Camino Nuevo High No. 2", "zipcode": "90004", "longitude": "-118.28551", "grades": "9-12", "latitude": "34.076443"}, {"rating": "7", "name": "Dr. Sammy Lee Medical And Health Science Magnet Elementary", "zipcode": "90004", "longitude": "-118.28818", "grades": "K-5", "latitude": "34.07425"}, {"rating": "7", "name": "Westside Innovative School House Charter Middle", "zipcode": "90045", "longitude": "-118.405426", "grades": "7-8", "latitude": "33.972652"}, {"rating": "7", "name": "Academy Of Arts And Sciences: Los Angeles (K-8)", "zipcode": "91316", "longitude": "-118.51485", "grades": "K-8", "latitude": "34.17188"}, {"rating": "6", "name": "Baldwin Hills Elementary School", "zipcode": "90016", "longitude": "-118.36492", "grades": "K-5", "latitude": "34.02158"}, {"rating": "6", "name": "Brentwood Science School", "zipcode": "90049", "longitude": "-118.4751", "grades": "K-5", "latitude": "34.050663"}, {"rating": "6", "name": "City Terrace Elementary School", "zipcode": "90063", "longitude": "-118.17215", "grades": "K-5", "latitude": "34.057568"}, {"rating": "6", "name": "Commonwealth Avenue Elementary School", "zipcode": "90004", "longitude": "-118.28591", "grades": "K-5", "latitude": "34.075348"}, {"rating": "6", "name": "Dayton Heights Elementary School", "zipcode": "90004", "longitude": "-118.28804", "grades": "K-5", "latitude": "34.081917"}, {"rating": "6", "name": "Gardner Street Elementary School", "zipcode": "90046", "longitude": "-118.3521", "grades": "K-6", "latitude": "34.0998"}, {"rating": "6", "name": "Garvanza Elementary School", "zipcode": "90042", "longitude": "-118.18258", "grades": "K-6", "latitude": "34.117264"}, {"rating": "6", "name": "Alexander Hamilton Senior High School", "zipcode": "90034", "longitude": "-118.38966", "grades": "9-12", "latitude": "34.03345"}, {"rating": "6", "name": "Hoover Street Elementary School", "zipcode": "90005", "longitude": "-118.2849", "grades": "K-5", "latitude": "34.056805"}, {"rating": "6", "name": "Abraham Lincoln Senior High School", "zipcode": "90031", "longitude": "-118.20387", "grades": "9-12", "latitude": "34.07384"}, {"rating": "6", "name": "Multnomah Street Elementary School", "zipcode": "90032", "longitude": "-118.19272", "grades": "K-5", "latitude": "34.069115"}, {"rating": "6", "name": "One Hundred Twenty-Second Street Elementary School", "zipcode": "90061", "longitude": "-118.26663", "grades": "K-5", "latitude": "33.921314"}, {"rating": "6", "name": "Richland Avenue Elementary School", "zipcode": "90064", "longitude": "-118.44004", "grades": "K-6", "latitude": "34.028736"}, {"rating": "6", "name": "Rockdale Elementary School", "zipcode": "90041", "longitude": "-118.1936", "grades": "K-6", "latitude": "34.133274"}, {"rating": "6", "name": "Short Avenue Elementary School", "zipcode": "90066", "longitude": "-118.4321", "grades": "PK-6", "latitude": "33.989998"}, {"rating": "6", "name": "Nora Sterry Elementary School", "zipcode": "90025", "longitude": "-118.44797", "grades": "K-5", "latitude": "34.044342"}, {"rating": "6", "name": "Thirty-Second Street Usc Performing Arts", "zipcode": "90007", "longitude": "-118.2829", "grades": "K-12", "latitude": "34.025215"}, {"rating": "6", "name": "University Senior High School", "zipcode": "90025", "longitude": "-118.46135", "grades": "9-12", "latitude": "34.04573"}, {"rating": "6", "name": "Van Ness Avenue Elementary School", "zipcode": "90004", "longitude": "-118.31574", "grades": "K-5", "latitude": "34.080338"}, {"rating": "6", "name": "Vermont Avenue Elementary School", "zipcode": "90007", "longitude": "-118.29352", "grades": "K-5", "latitude": "34.030502"}, {"rating": "6", "name": "New West Charter School", "zipcode": "90025", "longitude": "-118.44461", "grades": "6-11", "latitude": "34.032494"}, {"rating": "6", "name": "Oscar De La Hoya Animo Charter High School", "zipcode": "90023", "longitude": "-118.20339", "grades": "9-12", "latitude": "34.023285"}, {"rating": "6", "name": "Middle College High School", "zipcode": "90047", "longitude": "-118.30896", "grades": "9-12", "latitude": "33.927372"}, {"rating": "6", "name": "Celerity Nascent Charter School", "zipcode": "90018", "longitude": "-118.33333", "grades": "K-8", "latitude": "34.025803"}, {"rating": "6", "name": "Animo Ralph Bunche High School", "zipcode": "90011", "longitude": "-118.24435", "grades": "9-12", "latitude": "34.0128"}, {"rating": "6", "name": "Center For Advanced Learning", "zipcode": "90011", "longitude": "-118.25596", "grades": "K-5", "latitude": "34.01066"}, {"rating": "6", "name": "Celerity Dyad Charter School", "zipcode": "90011", "longitude": "-118.2593", "grades": "K-8", "latitude": "34.0026"}, {"rating": "6", "name": "Icef Vista Middle Academy", "zipcode": "90066", "longitude": "-118.36666", "grades": "6-8", "latitude": "33.989258"}, {"rating": "6", "name": "New Los Angeles Charter School", "zipcode": "90016", "longitude": "-118.34114", "grades": "6-8", "latitude": "34.061848"}, {"rating": "6", "name": "Rfk Community Schools-Los Angeles High School Of The Arts", "zipcode": "90005", "longitude": "-118.26293", "grades": "9-12", "latitude": "34.061768"}, {"rating": "6", "name": "Icef Vista Elementary Academy", "zipcode": "90066", "longitude": "-118.41873", "grades": "K-5", "latitude": "33.994526"}, {"rating": "6", "name": "Ramon C. Cortines School Of Visual And Performing Arts", "zipcode": "90012", "longitude": "-118.24495", "grades": "9-12", "latitude": "34.05955"}, {"rating": "6", "name": "Alliance Media Arts And Entertainment Design High School", "zipcode": "90063", "longitude": "-118.15851", "grades": "9-12", "latitude": "34.020226"}, {"rating": "6", "name": "Magnolia Science Academy 6 School", "zipcode": "90034", "longitude": "-118.40016", "grades": "6-8", "latitude": "34.024086"}, {"rating": "6", "name": "Puc Triumph Charter High School", "zipcode": "91352", "longitude": "-118.39784", "grades": "9-12", "latitude": "34.23496"}, {"rating": "6", "name": "Camino Nuevo Charter Academy No. 4", "zipcode": "90026", "longitude": "-118.265076", "grades": "K-8", "latitude": "34.076683"}, {"rating": "6", "name": "Valley Academy Of Arts And Sciences", "zipcode": "91344", "longitude": "-118.502785", "grades": "9-12", "latitude": "34.259804"}, {"rating": "6", "name": "Alliance College-Ready Academy High No. 16", "zipcode": "90026", "longitude": "-118.261536", "grades": "9-12", "latitude": "34.06348"}, {"rating": "6", "name": "Alliance Susan And Eric Smidt Technology High School", "zipcode": "90031", "longitude": "-118.22022", "grades": "9-12", "latitude": "34.07237"}, {"rating": "6", "name": "USC Hybrid High School", "zipcode": "90071", "longitude": "-118.255035", "grades": "9-12", "latitude": "34.053753"}, {"rating": "6", "name": "The Incubator School", "zipcode": "90045", "longitude": "-118.42889", "grades": "6-9", "latitude": "33.957764"}, {"rating": "6", "name": "Equitas Academy Charter #2", "zipcode": "90005", "longitude": "-118.28503", "grades": "5-8", "latitude": "34.05789"}, {"rating": "6", "name": "Westchester Secondary Charter", "zipcode": "90045", "longitude": "-118.39471", "grades": "6-12", "latitude": "33.956646"}, {"rating": "6", "name": "Banning Academies Of Creative And Innovative Sciences (Bacis)", "zipcode": "90744", "longitude": "-118.26107", "grades": "9-12", "latitude": "33.794174"}, {"rating": "5", "name": "Belmont Senior High School", "zipcode": "90026", "longitude": "-118.26293", "grades": "9-12", "latitude": "34.061768"}, {"rating": "5", "name": "Luther Burbank Middle School", "zipcode": "90042", "longitude": "-118.1836", "grades": "6-8", "latitude": "34.119305"}, {"rating": "5", "name": "Carthay Center Elementary", "zipcode": "90048", "longitude": "-118.3691", "grades": "K-5", "latitude": "34.058807"}, {"rating": "5", "name": "Cienega Elementary School", "zipcode": "90016", "longitude": "-118.35347", "grades": "K-5", "latitude": "34.032326"}, {"rating": "5", "name": "Cowan Avenue Elementary School", "zipcode": "90045", "longitude": "-118.40485", "grades": "K-6", "latitude": "33.973312"}, {"rating": "5", "name": "Crescent Heights Boulevard Elementary School", "zipcode": "90035", "longitude": "-118.37362", "grades": "K-5", "latitude": "34.047222"}, {"rating": "5", "name": "El Sereno Elementary School", "zipcode": "90032", "longitude": "-118.17741", "grades": "K-6", "latitude": "34.08967"}, {"rating": "5", "name": "Elysian Heights Elementary School", "zipcode": "90026", "longitude": "-118.24939", "grades": "K-6", "latitude": "34.089104"}, {"rating": "5", "name": "Emerson Community Charter School", "zipcode": "90024", "longitude": "-118.43569", "grades": "6-8", "latitude": "34.05403"}, {"rating": "5", "name": "Grand View Boulevard Elementary School", "zipcode": "90066", "longitude": "-118.42884", "grades": "PK-5", "latitude": "34.001774"}, {"rating": "5", "name": "Hobart Boulevard Elementary School", "zipcode": "90006", "longitude": "-118.30519", "grades": "K-5", "latitude": "34.052807"}, {"rating": "5", "name": "Washington Irving Middle School Math, Music And Engineering Magnet", "zipcode": "90065", "longitude": "-118.24078", "grades": "6-8", "latitude": "34.117565"}, {"rating": "5", "name": "Laurel Elementary School", "zipcode": "90046", "longitude": "-118.36274", "grades": "K-8", "latitude": "34.089027"}, {"rating": "5", "name": "Los Angeles Senior High School", "zipcode": "90019", "longitude": "-118.33316", "grades": "9-12", "latitude": "34.056717"}, {"rating": "5", "name": "Los Feliz STEMM Magnet", "zipcode": "90027", "longitude": "-118.293015", "grades": "K-6", "latitude": "34.102768"}, {"rating": "5", "name": "Marianna Avenue Elementary School", "zipcode": "90063", "longitude": "-118.17541", "grades": "K-6", "latitude": "34.035175"}, {"rating": "5", "name": "Marvin Elementary School", "zipcode": "90016", "longitude": "-118.36448", "grades": "K-5", "latitude": "34.033684"}, {"rating": "5", "name": "Nevin Avenue Elementary School", "zipcode": "90011", "longitude": "-118.24595", "grades": "K-5", "latitude": "34.012127"}, {"rating": "5", "name": "Rosewood Avenue Elementary School, School for Advanced Studies", "zipcode": "90048", "longitude": "-118.37474", "grades": "K-6", "latitude": "34.08109"}, {"rating": "5", "name": "San Pedro Street Elementary School", "zipcode": "90015", "longitude": "-118.25642", "grades": "K-5", "latitude": "34.029224"}, {"rating": "5", "name": "Santa Monica Boulevard Community Charter School", "zipcode": "90038", "longitude": "-118.31569", "grades": "K-6", "latitude": "34.089363"}, {"rating": "5", "name": "Virgil Middle School", "zipcode": "90004", "longitude": "-118.29164", "grades": "6-8", "latitude": "34.073845"}, {"rating": "5", "name": "Walgrove Avenue Elementary School", "zipcode": "90066", "longitude": "-118.45273", "grades": "K-5", "latitude": "34.005653"}, {"rating": "5", "name": "Watts Learning Center", "zipcode": "90003", "longitude": "-118.2785", "grades": "K-5", "latitude": "33.950066"}, {"rating": "5", "name": "Westport Heights Elementary School", "zipcode": "90045", "longitude": "-118.38881", "grades": "K-5", "latitude": "33.96636"}, {"rating": "5", "name": "Woodrow Wilson Senior High School", "zipcode": "90032", "longitude": "-118.18618", "grades": "9-12", "latitude": "34.07077"}, {"rating": "5", "name": "Yorkdale Elementary School", "zipcode": "90042", "longitude": "-118.19454", "grades": "K-6", "latitude": "34.120686"}, {"rating": "5", "name": "Stella Middle Charter Academy", "zipcode": "90016", "longitude": "-118.352425", "grades": "5-8", "latitude": "34.031437"}, {"rating": "5", "name": "View Park Preparatory Accelerated Charter School", "zipcode": "90043", "longitude": "-118.34176", "grades": "K-5", "latitude": "33.989254"}, {"rating": "5", "name": "Camino Nuevo Charter Academy", "zipcode": "90057", "longitude": "-118.30414", "grades": "K-8", "latitude": "34.062325"}, {"rating": "5", "name": "Puc California Academy For Liberal Studies", "zipcode": "90041", "longitude": "-118.18749", "grades": "6-8", "latitude": "34.137184"}, {"rating": "5", "name": "Los Angeles Leadership Academy", "zipcode": "90031", "longitude": "-118.29538", "grades": "6-12", "latitude": "34.06099"}, {"rating": "5", "name": "Accelerated Elementary Charter School", "zipcode": "90011", "longitude": "-118.27336", "grades": "K-5", "latitude": "34.015102"}, {"rating": "5", "name": "Harvard Elementary School", "zipcode": "90004", "longitude": "-118.30441", "grades": "K-5", "latitude": "34.076702"}, {"rating": "5", "name": "Kingsley Elementary School", "zipcode": "90029", "longitude": "-118.30252", "grades": "K-5", "latitude": "34.091915"}, {"rating": "5", "name": "Village Glen West", "zipcode": "90066", "longitude": "-118.425415", "grades": "PK-12", "latitude": "33.997993"}, {"rating": "5", "name": "New Heights Charter School", "zipcode": "90008", "longitude": "-118.31788", "grades": "K-8", "latitude": "34.009956"}, {"rating": "5", "name": "Wilshire Park Elementary School", "zipcode": "90010", "longitude": "-118.31613", "grades": "K-5", "latitude": "34.060787"}, {"rating": "5", "name": "Miguel Contreras Learning Complex School", "zipcode": "90017", "longitude": "-118.26173", "grades": "9-12", "latitude": "34.058075"}, {"rating": "5", "name": "Alliance Ouchi-O'donovan 6-12 Complex", "zipcode": "90043", "longitude": "-118.32249", "grades": "6-12", "latitude": "33.99348"}, {"rating": "5", "name": "Alliance Jack H. Skirball Middle School", "zipcode": "90059", "longitude": "-118.26361", "grades": "6-8", "latitude": "33.930134"}, {"rating": "5", "name": "Academic Leadership Community School", "zipcode": "90017", "longitude": "-118.26173", "grades": "9-12", "latitude": "34.058075"}, {"rating": "5", "name": "Rfk Community Schools- For The Visual Arts And Humanities", "zipcode": "90005", "longitude": "-118.25455", "grades": "9-12", "latitude": "34.062004"}, {"rating": "5", "name": "Synergy Kinetic Academy", "zipcode": "90011", "longitude": "-118.27471", "grades": "6-8", "latitude": "33.999767"}, {"rating": "5", "name": "Alliance College-Ready Middle Academy No. 4", "zipcode": "90003", "longitude": "-118.24522", "grades": "6-8", "latitude": "33.934776"}, {"rating": "5", "name": "Alliance Health Services Academy High School", "zipcode": "90047", "longitude": "-118.30897", "grades": "9-12", "latitude": "33.92268"}, {"rating": "5", "name": "Endeavor College Preparatory Charter School", "zipcode": "90031", "longitude": "-118.22047", "grades": "K-8", "latitude": "34.069088"}, {"rating": "5", "name": "Puc Santa Rosa Charter Academy", "zipcode": "90065", "longitude": "-118.18749", "grades": "6-8", "latitude": "34.137184"}, {"rating": "5", "name": "Los Angeles Big Picture High School", "zipcode": "90017", "longitude": "-118.25754", "grades": "9-12", "latitude": "34.04867"}, {"rating": "5", "name": "Today's Fresh Start Charter School", "zipcode": "90043", "longitude": "-118.33028", "grades": "K-8", "latitude": "34.002193"}, {"rating": "5", "name": "Animo Westside Charter Middle School", "zipcode": "90066", "longitude": "-118.41887", "grades": "6-8 & ungraded", "latitude": "33.97744"}, {"rating": "5", "name": "Alliance Renee And Meyer Luskin Academy High School", "zipcode": "90043", "longitude": "-118.32576", "grades": "9-12", "latitude": "33.97709"}, {"rating": "5", "name": "City Language Immersion Charter (CLIC)", "zipcode": "90016", "longitude": "-118.34022", "grades": "PK-4", "latitude": "34.036125"}, {"rating": "5", "name": "New Horizons Charter Academy", "zipcode": "91601", "longitude": "-118.38353", "grades": "K-8", "latitude": "34.17883"}, {"rating": "5", "name": "Contreras Learning Center-School Of Social Justice", "zipcode": "90017", "longitude": "-118.26155", "grades": "9-12", "latitude": "34.057953"}], "san_francisco": [{"rating": "10", "name": "Asawa (Ruth) San Francisco School Of The Arts, A Public School.", "zipcode": "94131", "longitude": "-122.44999", "grades": "9-12", "latitude": "37.7459"}, {"rating": "10", "name": "Chin (John Yehall) Elementary School", "zipcode": "94133", "longitude": "-122.40321", "grades": "K-5", "latitude": "37.79861"}, {"rating": "10", "name": "Clarendon Alternative Elementary School", "zipcode": "94131", "longitude": "-122.45607", "grades": "K-5", "latitude": "37.752983"}, {"rating": "10", "name": "Giannini (A.P.) Middle School", "zipcode": "94122", "longitude": "-122.49702", "grades": "6-8", "latitude": "37.75145"}, {"rating": "10", "name": "Grattan Elementary School", "zipcode": "94117", "longitude": "-122.45053", "grades": "K-5", "latitude": "37.763885"}, {"rating": "10", "name": "Lafayette Elementary School", "zipcode": "94121", "longitude": "-122.49687", "grades": "K-5", "latitude": "37.777054"}, {"rating": "10", "name": "Lawton Alternative Elementary School", "zipcode": "94122", "longitude": "-122.48962", "grades": "K-8", "latitude": "37.757946"}, {"rating": "10", "name": "Lilienthal (Claire) Elementary School", "zipcode": "94123", "longitude": "-122.4429", "grades": "K-8", "latitude": "37.803314"}, {"rating": "10", "name": "Lowell High School", "zipcode": "94132", "longitude": "-122.48356", "grades": "9-12", "latitude": "37.731064"}, {"rating": "10", "name": "Miraloma Elementary School", "zipcode": "94127", "longitude": "-122.45021", "grades": "K-5", "latitude": "37.739334"}, {"rating": "10", "name": "Peabody (George) Elementary School", "zipcode": "94118", "longitude": "-122.46453", "grades": "K-5", "latitude": "37.783943"}, {"rating": "10", "name": "Stevenson (Robert Louis) Elementary School", "zipcode": "94116", "longitude": "-122.49224", "grades": "K-5", "latitude": "37.748848"}, {"rating": "10", "name": "Sunset Elementary School", "zipcode": "94116", "longitude": "-122.49983", "grades": "K-5", "latitude": "37.750744"}, {"rating": "10", "name": "Ulloa Elementary School", "zipcode": "94116", "longitude": "-122.49998", "grades": "K-5", "latitude": "37.737297"}, {"rating": "10", "name": "Yu (Alice Fong) Elementary School", "zipcode": "94122", "longitude": "-122.46928", "grades": "K-8", "latitude": "37.75941"}, {"rating": "10", "name": "Chinese Immersion School At Deavila", "zipcode": "94117", "longitude": "-122.44428", "grades": "K-5", "latitude": "37.769436"}, {"rating": "9", "name": "Alamo Elementary School", "zipcode": "94121", "longitude": "-122.48226", "grades": "K-5", "latitude": "37.783"}, {"rating": "9", "name": "Alvarado Elementary School", "zipcode": "94114", "longitude": "-122.43816", "grades": "K-5", "latitude": "37.753708"}, {"rating": "9", "name": "Balboa High School", "zipcode": "94112", "longitude": "-122.43982", "grades": "9-12", "latitude": "37.72206"}, {"rating": "9", "name": "Creative Arts Charter School", "zipcode": "94115", "longitude": "-122.43543", "grades": "K-8", "latitude": "37.780052"}, {"rating": "9", "name": "Galileo High School", "zipcode": "94109", "longitude": "-122.42407", "grades": "9-12", "latitude": "37.803375"}, {"rating": "9", "name": "Jefferson Elementary School", "zipcode": "94122", "longitude": "-122.47636", "grades": "K-5", "latitude": "37.763577"}, {"rating": "9", "name": "Key (Francis Scott) Elementary School", "zipcode": "94122", "longitude": "-122.50253", "grades": "K-5", "latitude": "37.758152"}, {"rating": "9", "name": "Lincoln (Abraham) High School", "zipcode": "94116", "longitude": "-122.48135", "grades": "9-12", "latitude": "37.747257"}, {"rating": "9", "name": "Mccoppin (Frank) Elementary School", "zipcode": "94118", "longitude": "-122.46398", "grades": "K-5", "latitude": "37.776283"}, {"rating": "9", "name": "McKinley Elementary School", "zipcode": "94114", "longitude": "-122.4366", "grades": "K-5", "latitude": "37.767254"}, {"rating": "9", "name": "New Traditions Elementary School", "zipcode": "94117", "longitude": "-122.45033", "grades": "K-5", "latitude": "37.77433"}, {"rating": "9", "name": "Presidio Middle School", "zipcode": "94121", "longitude": "-122.49013", "grades": "6-8", "latitude": "37.780827"}, {"rating": "9", "name": "Rooftop Elementary School", "zipcode": "94131", "longitude": "-122.44392", "grades": "K-8", "latitude": "37.75442"}, {"rating": "9", "name": "Sherman Elementary School", "zipcode": "94123", "longitude": "-122.42611", "grades": "K-5", "latitude": "37.797802"}, {"rating": "9", "name": "Sloat (Commodore) Elementary School", "zipcode": "94127", "longitude": "-122.47096", "grades": "K-5", "latitude": "37.73191"}, {"rating": "9", "name": "Sutro Elementary School", "zipcode": "94118", "longitude": "-122.47099", "grades": "K-5", "latitude": "37.783928"}, {"rating": "9", "name": "West Portal Elementary School", "zipcode": "94127", "longitude": "-122.46471", "grades": "K-5", "latitude": "37.74357"}, {"rating": "9", "name": "Washington (George) High School", "zipcode": "94121", "longitude": "-122.49207", "grades": "9-12", "latitude": "37.77778"}, {"rating": "9", "name": "Yick Wo Elementary School", "zipcode": "94133", "longitude": "-122.41627", "grades": "K-5", "latitude": "37.801907"}, {"rating": "9", "name": "Buri Buri Elementary School", "zipcode": "94080", "longitude": "-122.44565", "grades": "K-5", "latitude": "37.65615"}, {"rating": "9", "name": "Westborough Middle School", "zipcode": "94080", "longitude": "-122.461", "grades": "6-8", "latitude": "37.644135"}, {"rating": "9", "name": "Feinstein (Dianne) Elementary School", "zipcode": "94116", "longitude": "-122.48189", "grades": "K-5", "latitude": "37.739964"}, {"rating": "9", "name": "San Francisco Public Montessori School", "zipcode": "94115", "longitude": "-122.433624", "grades": "K-5", "latitude": "37.79276"}, {"rating": "8", "name": "Argonne Elementary School", "zipcode": "94121", "longitude": "-122.47683", "grades": "K-5", "latitude": "37.775143"}, {"rating": "8", "name": "Garfield Elementary School", "zipcode": "94133", "longitude": "-122.40673", "grades": "K-5", "latitude": "37.80177"}, {"rating": "8", "name": "Gateway High School", "zipcode": "94115", "longitude": "-122.43702", "grades": "9-12", "latitude": "37.783222"}, {"rating": "8", "name": "Hoover (Herbert) Middle School", "zipcode": "94116", "longitude": "-122.47034", "grades": "6-8", "latitude": "37.745346"}, {"rating": "8", "name": "Lau (Gordon J.) Elementary School", "zipcode": "94108", "longitude": "-122.40879", "grades": "K-5", "latitude": "37.794403"}, {"rating": "8", "name": "Ortega (Jose) Elementary School", "zipcode": "94132", "longitude": "-122.46626", "grades": "K-5", "latitude": "37.71614"}, {"rating": "8", "name": "Parks (Rosa) Elementary School", "zipcode": "94115", "longitude": "-122.42946", "grades": "K-5", "latitude": "37.78371"}, {"rating": "8", "name": "Roosevelt Middle School", "zipcode": "94118", "longitude": "-122.45835", "grades": "6-8", "latitude": "37.782288"}, {"rating": "8", "name": "Sunnyside Elementary School", "zipcode": "94112", "longitude": "-122.448715", "grades": "K-5", "latitude": "37.730278"}, {"rating": "8", "name": "Taylor (Edward R.) Elementary School", "zipcode": "94134", "longitude": "-122.40734", "grades": "K-5", "latitude": "37.728024"}, {"rating": "8", "name": "Wallenberg (Raoul) Traditional High School", "zipcode": "94115", "longitude": "-122.44575", "grades": "9-12", "latitude": "37.780144"}, {"rating": "8", "name": "El Camino High School", "zipcode": "94080", "longitude": "-122.44122", "grades": "9-12", "latitude": "37.667103"}, {"rating": "8", "name": "Gateway Middle School", "zipcode": "94115", "longitude": "-122.436005", "grades": "6-8", "latitude": "37.779438"}, {"rating": "8", "name": "KIPP San Francisco College Preparatory", "zipcode": "94124", "longitude": "-122.38247", "grades": "9-12", "latitude": "37.732307"}, {"rating": "7", "name": "Aptos Middle School", "zipcode": "94127", "longitude": "-122.46627", "grades": "6-8", "latitude": "37.73024"}, {"rating": "7", "name": "Lakeshore Alternative Elementary School", "zipcode": "94132", "longitude": "-122.48618", "grades": "K-5", "latitude": "37.730606"}, {"rating": "7", "name": "Marina Middle School", "zipcode": "94123", "longitude": "-122.43639", "grades": "6-8", "latitude": "37.801666"}, {"rating": "7", "name": "Milk (Harvey) Civil Rights Elementary School", "zipcode": "94114", "longitude": "-122.43634", "grades": "K-5", "latitude": "37.759174"}, {"rating": "7", "name": "Monroe Elementary School", "zipcode": "94112", "longitude": "-122.43048", "grades": "K-5", "latitude": "37.7254"}, {"rating": "7", "name": "Moscone (George R.) Elementary School", "zipcode": "94110", "longitude": "-122.41227", "grades": "K-5", "latitude": "37.75624"}, {"rating": "7", "name": "Parker (Jean) Elementary School", "zipcode": "94133", "longitude": "-122.41102", "grades": "K-5", "latitude": "37.797615"}, {"rating": "7", "name": "Spring Valley Elementary School", "zipcode": "94109", "longitude": "-122.419", "grades": "K-5", "latitude": "37.794434"}, {"rating": "7", "name": "King (Starr) Elementary School", "zipcode": "94107", "longitude": "-122.39938", "grades": "K-5", "latitude": "37.75276"}, {"rating": "7", "name": "Visitacion Valley Elementary School", "zipcode": "94134", "longitude": "-122.4104", "grades": "K-5", "latitude": "37.71269"}, {"rating": "7", "name": "Alta Loma Middle School", "zipcode": "94080", "longitude": "-122.45067", "grades": "6-8", "latitude": "37.660545"}, {"rating": "7", "name": "Parkway Heights Middle School", "zipcode": "94080", "longitude": "-122.42398", "grades": "6-8", "latitude": "37.662346"}, {"rating": "7", "name": "South San Francisco High School", "zipcode": "94080", "longitude": "-122.42661", "grades": "9-12", "latitude": "37.647785"}, {"rating": "7", "name": "Mission Preparatory School", "zipcode": "94112", "longitude": "-122.434975", "grades": "K-8", "latitude": "37.72723"}, {"rating": "6", "name": "Burton (Phillip And Sala) Academic High School", "zipcode": "94134", "longitude": "-122.40506", "grades": "9-12", "latitude": "37.720673"}, {"rating": "6", "name": "Everett Middle School", "zipcode": "94114", "longitude": "-122.42968", "grades": "6-8", "latitude": "37.76362"}, {"rating": "6", "name": "Francisco Middle School", "zipcode": "94133", "longitude": "-122.41172", "grades": "6-8", "latitude": "37.80481"}, {"rating": "6", "name": "Longfellow Elementary School", "zipcode": "94112", "longitude": "-122.4477", "grades": "K-5", "latitude": "37.710484"}, {"rating": "6", "name": "Marshall Elementary School", "zipcode": "94103", "longitude": "-122.4191", "grades": "K-5", "latitude": "37.766705"}, {"rating": "6", "name": "Redding Elementary School", "zipcode": "94109", "longitude": "-122.41922", "grades": "K-5", "latitude": "37.789753"}, {"rating": "6", "name": "Ponderosa Elementary School", "zipcode": "94080", "longitude": "-122.43267", "grades": "K-5", "latitude": "37.64636"}, {"rating": "6", "name": "Sunshine Gardens Elementary School", "zipcode": "94080", "longitude": "-122.43611", "grades": "K-5", "latitude": "37.665836"},